{
"type": "FeatureCollection",
"crs": { "type": "name", "properties": { "name": "urn:ogc:def:crs:OGC:1.3:CRS84" } },
"features": [
{ "type": "Feature", "properties": { "zona": "1", "direccion": "Avenida Costanera Rafael Obligado", "latitude": -34.558801, "longitude": -58.418711, "compromiso": "110 hectáreas de nuevo espacio verde público (2019)", "accion": "Aeroparque", "eje": "Disfrute y Convivencia", "Area temática": "", "anio": "2019", "Barrio": "", "Comuna": "", "segundo": "22", "DESCRIPCION": "110 Hectáreas Verdes (Aeroparque)", "Prioridad": "" }, "geometry": { "type": "Point", "coordinates": [ -58.418711, -34.558801 ] } },
{ "type": "Feature", "properties": { "zona": "2", "direccion": "Av. Don Pedro de Mendoza y Av. Regimiento de los Patricios", "latitude": -34.649606, "longitude": -58.367373, "compromiso": "110 hectáreas de nuevo espacio verde público (2019)", "accion": "Camino de Sirga Etapa 1", "eje": "Disfrute y Convivencia", "Area temática": "", "anio": "2019", "Barrio": "", "Comuna": "", "segundo": "22", "DESCRIPCION": "", "Prioridad": "" }, "geometry": { "type": "Point", "coordinates": [ -58.367373, -34.649606 ] } },
{ "type": "Feature", "properties": { "zona": "3", "direccion": "Pedro de Luján y Río Limay", "latitude": -34.657417, "longitude": -58.384068, "compromiso": "110 hectáreas de nuevo espacio verde público (2019)", "accion": "Camino de Sirga Etapa 2", "eje": "Disfrute y Convivencia", "Area temática": "", "anio": "2019", "Barrio": "", "Comuna": "", "segundo": "22", "DESCRIPCION": "", "Prioridad": "" }, "geometry": { "type": "Point", "coordinates": [ -58.384068, -34.657417 ] } },
{ "type": "Feature", "properties": { "zona": "4", "direccion": "Iguazú", "latitude": -34.659419, "longitude": -58.401969, "compromiso": "110 hectáreas de nuevo espacio verde público (2019)", "accion": "Camino de Sirga Etapa 3", "eje": "Disfrute y Convivencia", "Area temática": "", "anio": "2019", "Barrio": "", "Comuna": "", "segundo": "22", "DESCRIPCION": "", "Prioridad": "" }, "geometry": { "type": "Point", "coordinates": [ -58.401969, -34.659419 ] } },
{ "type": "Feature", "properties": { "zona": "5", "direccion": "Av. Medrano y Bartolomé Mitre", "latitude": -34.60952127, "longitude": -58.4211501, "compromiso": "110 hectáreas de nuevo espacio verde público (2019)", "accion": "Correor Verde del Oeste (Cruce Medrano)", "eje": "Disfrute y Convivencia", "Area temática": "", "anio": "2019", "Barrio": "", "Comuna": "", "segundo": "22", "DESCRIPCION": "", "Prioridad": "" }, "geometry": { "type": "Point", "coordinates": [ -58.4211501, -34.60952127 ] } },
{ "type": "Feature", "properties": { "zona": "6", "direccion": "Cramer 475", "latitude": -34.574644, "longitude": -58.444806, "compromiso": "110 hectáreas de nuevo espacio verde público (2019)", "accion": "Plaza Cramer", "eje": "Disfrute y Convivencia", "Area temática": "", "anio": "2019", "Barrio": "", "Comuna": "", "segundo": "22", "DESCRIPCION": "110 Hectáreas Verdes (Plaza Cramer)", "Prioridad": "" }, "geometry": { "type": "Point", "coordinates": [ -58.444806, -34.574644 ] } },
{ "type": "Feature", "properties": { "zona": "7", "direccion": "Av. Alicia Moreau de Justo 2100", "latitude": -34.623642, "longitude": -58.364067, "compromiso": "110 hectáreas de nuevo espacio verde público (2019)", "accion": "Dique 0", "eje": "Disfrute y Convivencia", "Area temática": "", "anio": "2019", "Barrio": "", "Comuna": "", "segundo": "22", "DESCRIPCION": "", "Prioridad": "" }, "geometry": { "type": "Point", "coordinates": [ -58.364067, -34.623642 ] } },
{ "type": "Feature", "properties": { "zona": "8", "direccion": "Av. Coronel Ramón Lorenzo Falcon y Av. Olivera", "latitude": -34.636795, "longitude": -58.486852, "compromiso": "110 hectáreas de nuevo espacio verde público (2019)", "accion": "El Olimpo", "eje": "Disfrute y Convivencia", "Area temática": "", "anio": "2019", "Barrio": "", "Comuna": "", "segundo": "22", "DESCRIPCION": "", "Prioridad": "" }, "geometry": { "type": "Point", "coordinates": [ -58.486852, -34.636795 ] } },
{ "type": "Feature", "properties": { "zona": "9", "direccion": "Av. Piedra Buena y Av. José I. de la Rosa", "latitude": -34.670808, "longitude": -58.493537, "compromiso": "110 hectáreas de nuevo espacio verde público (2019)", "accion": "Elefante Blanco", "eje": "Disfrute y Convivencia", "Area temática": "", "anio": "2019", "Barrio": "", "Comuna": "", "segundo": "22", "DESCRIPCION": "", "Prioridad": "" }, "geometry": { "type": "Point", "coordinates": [ -58.493537, -34.670808 ] } },
{ "type": "Feature", "properties": { "zona": "10", "direccion": "Olavarría y Av. Vélez Sarsfield", "latitude": -34.64434062, "longitude": -58.3914273, "compromiso": "110 hectáreas de nuevo espacio verde público (2019)", "accion": "Estación Buenos Aires", "eje": "Disfrute y Convivencia", "Area temática": "", "anio": "2019", "Barrio": "", "Comuna": "", "segundo": "22", "DESCRIPCION": "", "Prioridad": "" }, "geometry": { "type": "Point", "coordinates": [ -58.3914273, -34.64434062 ] } },
{ "type": "Feature", "properties": { "zona": "11", "direccion": "Av. Belgrano y Catamarca", "latitude": -34.61400942, "longitude": -58.405714, "compromiso": "110 hectáreas de nuevo espacio verde público (2019)", "accion": "Manzana 66", "eje": "Disfrute y Convivencia", "Area temática": "", "anio": "2019", "Barrio": "", "Comuna": "", "segundo": "22", "DESCRIPCION": "", "Prioridad": "" }, "geometry": { "type": "Point", "coordinates": [ -58.405714, -34.61400942 ] } },
{ "type": "Feature", "properties": { "zona": "12", "direccion": "Tte. Gral. Juan Domingo Perón y Av. Díaz Vélez", "latitude": -34.60807712, "longitude": -58.4134267, "compromiso": "110 hectáreas de nuevo espacio verde público (2019)", "accion": "Parque de la Estación", "eje": "Disfrute y Convivencia", "Area temática": "", "anio": "2019", "Barrio": "", "Comuna": "", "segundo": "22", "DESCRIPCION": "", "Prioridad": "" }, "geometry": { "type": "Point", "coordinates": [ -58.4134267, -34.60807712 ] } },
{ "type": "Feature", "properties": { "zona": "13", "direccion": "Av. Paseo Colón y Moreno", "latitude": -34.610576, "longitude": -58.368755, "compromiso": "110 hectáreas de nuevo espacio verde público (2019)", "accion": "Parque del Bajo", "eje": "Disfrute y Convivencia", "Area temática": "", "anio": "2019", "Barrio": "", "Comuna": "", "segundo": "22", "DESCRIPCION": "", "Prioridad": "" }, "geometry": { "type": "Point", "coordinates": [ -58.368755, -34.610576 ] } },
{ "type": "Feature", "properties": { "zona": "14", "direccion": "Elcano y Del Campo", "latitude": -34.590965, "longitude": -58.466367, "compromiso": "110 hectáreas de nuevo espacio verde público (2019)", "accion": "Plaza Elcano", "eje": "Disfrute y Convivencia", "Area temática": "", "anio": "2019", "Barrio": "", "Comuna": "", "segundo": "22", "DESCRIPCION": "", "Prioridad": "" }, "geometry": { "type": "Point", "coordinates": [ -58.466367, -34.590965 ] } },
{ "type": "Feature", "properties": { "zona": "15", "direccion": "Padre Carlos Mugica", "latitude": -34.58229471, "longitude": -58.3868021, "compromiso": "110 hectáreas de nuevo espacio verde público (2019)", "accion": "Parque Lineal Illia", "eje": "Disfrute y Convivencia", "Area temática": "", "anio": "2019", "Barrio": "", "Comuna": "", "segundo": "22", "DESCRIPCION": "", "Prioridad": "" }, "geometry": { "type": "Point", "coordinates": [ -58.3868021, -34.58229471 ] } },
{ "type": "Feature", "properties": { "zona": "16", "direccion": "Av. Don Pedro de Mendoza y California", "latitude": -34.642134, "longitude": -58.358362, "compromiso": "110 hectáreas de nuevo espacio verde público (2019)", "accion": "Paseo de la Ribera Etapa 1", "eje": "Disfrute y Convivencia", "Area temática": "", "anio": "2019", "Barrio": "", "Comuna": "", "segundo": "22", "DESCRIPCION": "", "Prioridad": "" }, "geometry": { "type": "Point", "coordinates": [ -58.358362, -34.642134 ] } },
{ "type": "Feature", "properties": { "zona": "17", "direccion": "Av. Don Pedro de Mendoza y Carlos F. Melo", "latitude": -34.647301, "longitude": -58.361747, "compromiso": "110 hectáreas de nuevo espacio verde público (2019)", "accion": "Paseo de la Ribera Etapa 2", "eje": "Disfrute y Convivencia", "Area temática": "", "anio": "2019", "Barrio": "", "Comuna": "", "segundo": "22", "DESCRIPCION": "", "Prioridad": "" }, "geometry": { "type": "Point", "coordinates": [ -58.361747, -34.647301 ] } },
{ "type": "Feature", "properties": { "zona": "18", "direccion": "Av. Leandro N. Alem y Tucumán", "latitude": -34.60044373, "longitude": -58.3705314, "compromiso": "110 hectáreas de nuevo espacio verde público (2019)", "accion": "Paseo del Bajo", "eje": "Disfrute y Convivencia", "Area temática": "", "anio": "2019", "Barrio": "", "Comuna": "", "segundo": "22", "DESCRIPCION": "", "Prioridad": "" }, "geometry": { "type": "Point", "coordinates": [ -58.3705314, -34.60044373 ] } },
{ "type": "Feature", "properties": { "zona": "19", "direccion": "Beiró y Estado Plurinacional de Bolivia", "latitude": -34.592855, "longitude": -58.490776, "compromiso": "110 hectáreas de nuevo espacio verde público (2019)", "accion": "Plaza Paso Bajo Nivel Beiró", "eje": "Disfrute y Convivencia", "Area temática": "", "anio": "2019", "Barrio": "", "Comuna": "", "segundo": "22", "DESCRIPCION": "", "Prioridad": "" }, "geometry": { "type": "Point", "coordinates": [ -58.490776, -34.592855 ] } },
{ "type": "Feature", "properties": { "zona": "20", "direccion": "Figueroa Alcorta y Romero", "latitude": -34.583302, "longitude": -58.3905, "compromiso": "110 hectáreas de nuevo espacio verde público (2019)", "accion": "Plaza República Federativa de Brasil", "eje": "Disfrute y Convivencia", "Area temática": "", "anio": "2019", "Barrio": "", "Comuna": "", "segundo": "22", "DESCRIPCION": "", "Prioridad": "" }, "geometry": { "type": "Point", "coordinates": [ -58.3905, -34.583302 ] } },
{ "type": "Feature", "properties": { "zona": "21", "direccion": "Monroe y Homberg", "latitude": -34.568929, "longitude": -58.477616, "compromiso": "110 hectáreas de nuevo espacio verde público (2019)", "accion": "Plaza Monroe", "eje": "Disfrute y Convivencia", "Area temática": "", "anio": "2019", "Barrio": "", "Comuna": "", "segundo": "22", "DESCRIPCION": "", "Prioridad": "" }, "geometry": { "type": "Point", "coordinates": [ -58.477616, -34.568929 ] } },
{ "type": "Feature", "properties": { "zona": "22", "direccion": "Empedrado 2391", "latitude": -34.599752, "longitude": -58.48147, "compromiso": "110 hectáreas de nuevo espacio verde público (2019)", "accion": "Plaza Empedrado", "eje": "Disfrute y Convivencia", "Area temática": "", "anio": "2019", "Barrio": "", "Comuna": "", "segundo": "22", "DESCRIPCION": "", "Prioridad": "" }, "geometry": { "type": "Point", "coordinates": [ -58.48147, -34.599752 ] } },
{ "type": "Feature", "properties": { "zona": "23", "direccion": "Godoy Cruz y Paraguay", "latitude": -34.582056, "longitude": -58.429106, "compromiso": "110 hectáreas de nuevo espacio verde público (2019)", "accion": "Plaza de las Ciencias", "eje": "Disfrute y Convivencia", "Area temática": "", "anio": "2019", "Barrio": "", "Comuna": "", "segundo": "22", "DESCRIPCION": "", "Prioridad": "" }, "geometry": { "type": "Point", "coordinates": [ -58.429106, -34.582056 ] } },
{ "type": "Feature", "properties": { "zona": "24", "direccion": "Aguaribay y Gana", "latitude": -34.632978, "longitude": -58.52661, "compromiso": "110 hectáreas de nuevo espacio verde público (2019)", "accion": "PP Aguaribay 6768", "eje": "Disfrute y Convivencia", "Area temática": "", "anio": "2019", "Barrio": "", "Comuna": "", "segundo": "22", "DESCRIPCION": "", "Prioridad": "" }, "geometry": { "type": "Point", "coordinates": [ -58.52661, -34.632978 ] } },
{ "type": "Feature", "properties": { "zona": "25", "direccion": "Albarracin y Av. Vernet", "latitude": -34.633928, "longitude": -58.430381, "compromiso": "110 hectáreas de nuevo espacio verde público (2019)", "accion": "PP Albarracín 1470", "eje": "Disfrute y Convivencia", "Area temática": "", "anio": "2019", "Barrio": "", "Comuna": "", "segundo": "22", "DESCRIPCION": "", "Prioridad": "" }, "geometry": { "type": "Point", "coordinates": [ -58.430381, -34.633928 ] } },
{ "type": "Feature", "properties": { "zona": "26", "direccion": "Av. Gral. Francisco Fernandez de la Cruz y Av. Escalada", "latitude": -34.67596282, "longitude": -58.4541623, "compromiso": "110 hectáreas de nuevo espacio verde público (2019)", "accion": "Villa Olimpica", "eje": "Disfrute y Convivencia", "Area temática": "", "anio": "2019", "Barrio": "", "Comuna": "", "segundo": "22", "DESCRIPCION": "", "Prioridad": "" }, "geometry": { "type": "Point", "coordinates": [ -58.4541623, -34.67596282 ] } },
{ "type": "Feature", "properties": { "zona": "27", "direccion": "Av. 27 de Febrero y Arroyo Cildañez", "latitude": -34.680132, "longitude": -58.441234, "compromiso": "110 hectáreas de nuevo espacio verde público (2019)", "accion": "Parque natural Lugano", "eje": "Disfrute y Convivencia", "Area temática": "", "anio": "2019", "Barrio": "", "Comuna": "", "segundo": "22", "DESCRIPCION": "", "Prioridad": "" }, "geometry": { "type": "Point", "coordinates": [ -58.441234, -34.680132 ] } },
{ "type": "Feature", "properties": { "zona": "28", "direccion": "Tucumán y Talcahuano", "latitude": -34.600943, "longitude": -58.384611, "compromiso": "110 hectáreas de nuevo espacio verde público (2019)", "accion": "Plaza Lavalle", "eje": "Disfrute y Convivencia", "Area temática": "", "anio": "2019", "Barrio": "", "Comuna": "", "segundo": "22", "DESCRIPCION": "", "Prioridad": "" }, "geometry": { "type": "Point", "coordinates": [ -58.384611, -34.600943 ] } },
{ "type": "Feature", "properties": { "zona": "29", "direccion": "Av. Rivadavia y Av. 25 de Mayo", "latitude": -34.609167, "longitude": -58.387692, "compromiso": "110 hectáreas de nuevo espacio verde público (2019)", "accion": "Plaza Congreso", "eje": "Disfrute y Convivencia", "Area temática": "", "anio": "2019", "Barrio": "", "Comuna": "", "segundo": "22", "DESCRIPCION": "", "Prioridad": "" }, "geometry": { "type": "Point", "coordinates": [ -58.387692, -34.609167 ] } },
{ "type": "Feature", "properties": { "zona": "30", "direccion": "Av. Asamblea y Emilio Mitre", "latitude": -34.633843, "longitude": -58.443101, "compromiso": "110 hectáreas de nuevo espacio verde público (2019)", "accion": "Parque Chacabuco", "eje": "Disfrute y Convivencia", "Area temática": "", "anio": "2019", "Barrio": "", "Comuna": "", "segundo": "22", "DESCRIPCION": "", "Prioridad": "" }, "geometry": { "type": "Point", "coordinates": [ -58.443101, -34.633843 ] } },
{ "type": "Feature", "properties": { "zona": "31", "direccion": "Aguaribay y Gana", "latitude": -34.632978, "longitude": -58.52661, "compromiso": "12 plazas nuevas (2019)", "accion": "Plaza Aguaribay 6768", "eje": "Disfrute y Convivencia", "Area temática": "", "anio": "2019", "Barrio": "", "Comuna": "", "segundo": "58", "DESCRIPCION": "12 Nuevas Plazas (Aguaribay 6768)", "Prioridad": "" }, "geometry": { "type": "Point", "coordinates": [ -58.52661, -34.632978 ] } },
{ "type": "Feature", "properties": { "zona": "32", "direccion": "Albarracin y Av. Vernet", "latitude": -34.633928, "longitude": -58.430381, "compromiso": "12 plazas nuevas (2019)", "accion": "Plaza Albarracín 1470", "eje": "Disfrute y Convivencia", "Area temática": "", "anio": "2019", "Barrio": "", "Comuna": "", "segundo": "58", "DESCRIPCION": "", "Prioridad": "" }, "geometry": { "type": "Point", "coordinates": [ -58.430381, -34.633928 ] } },
{ "type": "Feature", "properties": { "zona": "33", "direccion": "Empedrado 2391", "latitude": -34.599752, "longitude": -58.48147, "compromiso": "12 plazas nuevas (2019)", "accion": "Plaza Empedrado", "eje": "Disfrute y Convivencia", "Area temática": "", "anio": "2019", "Barrio": "", "Comuna": "", "segundo": "58", "DESCRIPCION": "", "Prioridad": "" }, "geometry": { "type": "Point", "coordinates": [ -58.48147, -34.599752 ] } },
{ "type": "Feature", "properties": { "zona": "34", "direccion": "Cramer 475", "latitude": -34.574644, "longitude": -58.444806, "compromiso": "12 plazas nuevas (2019)", "accion": "Plaza Cramer", "eje": "Disfrute y Convivencia", "Area temática": "", "anio": "2019", "Barrio": "", "Comuna": "", "segundo": "58", "DESCRIPCION": "", "Prioridad": "" }, "geometry": { "type": "Point", "coordinates": [ -58.444806, -34.574644 ] } },
{ "type": "Feature", "properties": { "zona": "35", "direccion": "Beiró y Estado Plurinacional de Bolivia", "latitude": -34.592855, "longitude": -58.490776, "compromiso": "12 plazas nuevas (2019)", "accion": "Plaza Paso Bajo Nivel Beiró", "eje": "Disfrute y Convivencia", "Area temática": "", "anio": "2019", "Barrio": "AGRONOMIA", "Comuna": "15", "segundo": "58", "DESCRIPCION": "", "Prioridad": "" }, "geometry": { "type": "Point", "coordinates": [ -58.490776, -34.592855 ] } },
{ "type": "Feature", "properties": { "zona": "36", "direccion": "Figueroa Alcorta y Romero", "latitude": -34.583302, "longitude": -58.3905, "compromiso": "12 plazas nuevas (2019)", "accion": "Plaza República Federativa de Brasil", "eje": "Disfrute y Convivencia", "Area temática": "", "anio": "2019", "Barrio": "RECOLETA", "Comuna": "2", "segundo": "58", "DESCRIPCION": "", "Prioridad": "" }, "geometry": { "type": "Point", "coordinates": [ -58.3905, -34.583302 ] } },
{ "type": "Feature", "properties": { "zona": "37", "direccion": "Monroe y Homberg", "latitude": -34.568929, "longitude": -58.477616, "compromiso": "12 plazas nuevas (2019)", "accion": "Plaza Monroe", "eje": "Disfrute y Convivencia", "Area temática": "", "anio": "2019", "Barrio": "VILLA URQUIZA", "Comuna": "12", "segundo": "58", "DESCRIPCION": "", "Prioridad": "" }, "geometry": { "type": "Point", "coordinates": [ -58.477616, -34.568929 ] } },
{ "type": "Feature", "properties": { "zona": "38", "direccion": "Godoy Cruz y Paraguay", "latitude": -34.582056, "longitude": -58.429106, "compromiso": "12 plazas nuevas (2019)", "accion": "Plaza de las Ciencias", "eje": "Disfrute y Convivencia", "Area temática": "", "anio": "2019", "Barrio": "PALERMO", "Comuna": "14", "segundo": "58", "DESCRIPCION": "", "Prioridad": "" }, "geometry": { "type": "Point", "coordinates": [ -58.429106, -34.582056 ] } },
{ "type": "Feature", "properties": { "zona": "39", "direccion": "Elcano y Del Campo", "latitude": -34.590965, "longitude": -58.466367, "compromiso": "12 plazas nuevas (2019)", "accion": "Plaza Elcano", "eje": "Disfrute y Convivencia", "Area temática": "", "anio": "2019", "Barrio": "PATERNAL", "Comuna": "15", "segundo": "58", "DESCRIPCION": "", "Prioridad": "" }, "geometry": { "type": "Point", "coordinates": [ -58.466367, -34.590965 ] } },
{ "type": "Feature", "properties": { "zona": "40", "direccion": "PEPIRI 135", "latitude": -34.640615, "longitude": -58.410583, "compromiso": "12 Polideportivos y 4 grandes parques renovados (2019)", "accion": "Polideportivo Parque Patricios", "eje": "Disfrute y Convivencia", "Area temática": "", "anio": "2019", "Barrio": "PARQUE PATRICIOS", "Comuna": "4", "segundo": "80", "DESCRIPCION": "Renovar 12 Polideportivos y 4 grandes parques (Polideportivo Parque Patricios)", "Prioridad": "" }, "geometry": { "type": "Point", "coordinates": [ -58.410583, -34.640615 ] } },
{ "type": "Feature", "properties": { "zona": "41", "direccion": "MERCEDES 1300", "latitude": -34.622349, "longitude": -58.49116, "compromiso": "12 Polideportivos y 4 grandes parques renovados (2019)", "accion": "Renovación - POLIDEPORTIVO POMAR", "eje": "Disfrute y Convivencia", "Area temática": "", "anio": "2019", "Barrio": "FLORESTA", "Comuna": "10", "segundo": "80", "DESCRIPCION": "", "Prioridad": "" }, "geometry": { "type": "Point", "coordinates": [ -58.49116, -34.622349 ] } },
{ "type": "Feature", "properties": { "zona": "42", "direccion": "PATRON 6222", "latitude": -34.646593, "longitude": -58.513606, "compromiso": "12 Polideportivos y 4 grandes parques renovados (2019)", "accion": "Renovación - POLIDEPORTIVO SANTOJANNI", "eje": "Disfrute y Convivencia", "Area temática": "", "anio": "2019", "Barrio": "LINIERS", "Comuna": "9", "segundo": "80", "DESCRIPCION": "", "Prioridad": "" }, "geometry": { "type": "Point", "coordinates": [ -58.513606, -34.646593 ] } },
{ "type": "Feature", "properties": { "zona": "43", "direccion": "PERON, EVA AV. 1410", "latitude": -34.633089, "longitude": -58.444696, "compromiso": "12 Polideportivos y 4 grandes parques renovados (2019)", "accion": "Renovación - POLIDEPORTIVO CHACABUCO", "eje": "Disfrute y Convivencia", "Area temática": "", "anio": "2019", "Barrio": "PARQUE CHACABUCO", "Comuna": "7", "segundo": "80", "DESCRIPCION": "", "Prioridad": "" }, "geometry": { "type": "Point", "coordinates": [ -58.444696, -34.633089 ] } },
{ "type": "Feature", "properties": { "zona": "44", "direccion": "ORURO 1300", "latitude": -34.626122, "longitude": -58.40855, "compromiso": "12 Polideportivos y 4 grandes parques renovados (2019)", "accion": "Renovación - POLIDEPORTIVO MARTIN FIERRO", "eje": "Disfrute y Convivencia", "Area temática": "", "anio": "2019", "Barrio": "SAN CRISTOBAL", "Comuna": "3", "segundo": "80", "DESCRIPCION": "", "Prioridad": "" }, "geometry": { "type": "Point", "coordinates": [ -58.40855, -34.626122 ] } },
{ "type": "Feature", "properties": { "zona": "45", "direccion": "DE LA TORRE, LISANDRO AV. y MONTE", "latitude": -34.667324, "longitude": -58.495949, "compromiso": "12 Polideportivos y 4 grandes parques renovados (2019)", "accion": "Renovación - POLIDEPORTIVO DORREGO", "eje": "Disfrute y Convivencia", "Area temática": "", "anio": "2019", "Barrio": "MATADEROS", "Comuna": "9", "segundo": "80", "DESCRIPCION": "", "Prioridad": "" }, "geometry": { "type": "Point", "coordinates": [ -58.495949, -34.667324 ] } },
{ "type": "Feature", "properties": { "zona": "46", "direccion": "DE LOS CONSTITUYENTES AV. 3050", "latitude": -34.591791, "longitude": -58.476406, "compromiso": "12 Polideportivos y 4 grandes parques renovados (2019)", "accion": "Renovación - POLIDEPORTIVO COSTA RICA", "eje": "Disfrute y Convivencia", "Area temática": "", "anio": "2019", "Barrio": "AGRONOMIA", "Comuna": "15", "segundo": "80", "DESCRIPCION": "", "Prioridad": "" }, "geometry": { "type": "Point", "coordinates": [ -58.476406, -34.591791 ] } },
{ "type": "Feature", "properties": { "zona": "47", "direccion": "FREIRE, RAMON, CAP. GRAL. 234", "latitude": -34.57947, "longitude": -58.444687, "compromiso": "12 Polideportivos y 4 grandes parques renovados (2019)", "accion": "Renovación - POLIDEPORTIVO COLEGIALES", "eje": "Disfrute y Convivencia", "Area temática": "", "anio": "2019", "Barrio": "COLEGIALES", "Comuna": "13", "segundo": "80", "DESCRIPCION": "", "Prioridad": "" }, "geometry": { "type": "Point", "coordinates": [ -58.444687, -34.57947 ] } },
{ "type": "Feature", "properties": { "zona": "48", "direccion": "MISTRAL, GABRIELA 3819", "latitude": -34.594515, "longitude": -58.51373, "compromiso": "12 Polideportivos y 4 grandes parques renovados (2019)", "accion": "Renovación - POLIDEPORTIVO ONEGA", "eje": "Disfrute y Convivencia", "Area temática": "", "anio": "2019", "Barrio": "VILLA DEVOTO", "Comuna": "11", "segundo": "80", "DESCRIPCION": "", "Prioridad": "" }, "geometry": { "type": "Point", "coordinates": [ -58.51373, -34.594515 ] } },
{ "type": "Feature", "properties": { "zona": "49", "direccion": "HORNOS, GRAL. 1800", "latitude": -34.638155, "longitude": -58.376431, "compromiso": "12 Polideportivos y 4 grandes parques renovados (2019)", "accion": "Renovación - POLIDEPORTIVO DON PEPE", "eje": "Disfrute y Convivencia", "Area temática": "", "anio": "2019", "Barrio": "BARRACAS", "Comuna": "4", "segundo": "80", "DESCRIPCION": "", "Prioridad": "" }, "geometry": { "type": "Point", "coordinates": [ -58.376431, -34.638155 ] } },
{ "type": "Feature", "properties": { "zona": "50", "direccion": "LACARRA AV. 1257", "latitude": -34.64604, "longitude": -58.474339, "compromiso": "12 Polideportivos y 4 grandes parques renovados (2019)", "accion": "Renovación - POLIDEPORTIVO AVELLANEDA", "eje": "Disfrute y Convivencia", "Area temática": "", "anio": "2019", "Barrio": "PARQUE AVELLANEDA", "Comuna": "9", "segundo": "80", "DESCRIPCION": "", "Prioridad": "" }, "geometry": { "type": "Point", "coordinates": [ -58.474339, -34.64604 ] } },
{ "type": "Feature", "properties": { "zona": "51", "direccion": "VELEZ SARSFIELD AV. 1271", "latitude": -34.648999, "longitude": -58.389671, "compromiso": "12 Polideportivos y 4 grandes parques renovados (2019)", "accion": "Renovación - POLIDEPORTIVO PEREYRA", "eje": "Disfrute y Convivencia", "Area temática": "", "anio": "2019", "Barrio": "BARRACAS", "Comuna": "4", "segundo": "80", "DESCRIPCION": "", "Prioridad": "" }, "geometry": { "type": "Point", "coordinates": [ -58.389671, -34.648999 ] } },
{ "type": "Feature", "properties": { "zona": "52", "direccion": "SALGUERO, JERONIMO 3450", "latitude": -34.57271, "longitude": -58.401794, "compromiso": "12 Polideportivos y 4 grandes parques renovados (2019)", "accion": "KDT - Manuel Belgrano", "eje": "Disfrute y Convivencia", "Area temática": "", "anio": "2019", "Barrio": "PALERMO", "Comuna": "14", "segundo": "80", "DESCRIPCION": "", "Prioridad": "" }, "geometry": { "type": "Point", "coordinates": [ -58.401794, -34.57271 ] } },
{ "type": "Feature", "properties": { "zona": "53", "direccion": "BALBIN, RICARDO, DR. AV. 4750", "latitude": -34.553106, "longitude": -58.498538, "compromiso": "12 Polideportivos y 4 grandes parques renovados (2019)", "accion": "Parque Sarmiento", "eje": "Disfrute y Convivencia", "Area temática": "", "anio": "2019", "Barrio": "SAAVEDRA", "Comuna": "12", "segundo": "80", "DESCRIPCION": "", "Prioridad": "" }, "geometry": { "type": "Point", "coordinates": [ -58.498538, -34.553106 ] } },
{ "type": "Feature", "properties": { "zona": "54", "direccion": "ROCA, CNEL. AV. 3490", "latitude": -34.675416, "longitude": -58.441243, "compromiso": "12 Polideportivos y 4 grandes parques renovados (2019)", "accion": "Parque Roca", "eje": "Disfrute y Convivencia", "Area temática": "", "anio": "2019", "Barrio": "VILLA SOLDATI", "Comuna": "8", "segundo": "80", "DESCRIPCION": "", "Prioridad": "" }, "geometry": { "type": "Point", "coordinates": [ -58.441243, -34.675416 ] } },
{ "type": "Feature", "properties": { "zona": "55", "direccion": "Av. Valentín Alsina y Av. Ernesto Tornquist", "latitude": -34.558381, "longitude": -58.436483, "compromiso": "12 Polideportivos y 4 grandes parques renovados (2019)", "accion": "Parque Golf", "eje": "Disfrute y Convivencia", "Area temática": "", "anio": "2019", "Barrio": "PALERMO", "Comuna": "14", "segundo": "80", "DESCRIPCION": "", "Prioridad": "" }, "geometry": { "type": "Point", "coordinates": [ -58.436483, -34.558381 ] } },
{ "type": "Feature", "properties": { "zona": "56", "direccion": "Avenida Jujuy y Avenida Belgrano", "latitude": -34.61411949, "longitude": -58.4055811, "compromiso": "2 nuevos espacios verdes en Once (2018)", "accion": "Manzana 66 ", "eje": "Escala Humana", "Area temática": "", "anio": "2018", "Barrio": "BALVANERA", "Comuna": "3", "segundo": "9", "DESCRIPCION": "", "Prioridad": "" }, "geometry": { "type": "Point", "coordinates": [ -58.4055811, -34.61411949 ] } },
{ "type": "Feature", "properties": { "zona": "57", "direccion": "Perón, Entre Gallo y Anchorena", "latitude": -34.607781, "longitude": -58.413464, "compromiso": "2 nuevos espacios verdes en Once (2018)", "accion": "Parque de la Estación ", "eje": "Escala Humana", "Area temática": "", "anio": "2018", "Barrio": "BALVANERA", "Comuna": "3", "segundo": "9", "DESCRIPCION": "", "Prioridad": "" }, "geometry": { "type": "Point", "coordinates": [ -58.413464, -34.607781 ] } },
{ "type": "Feature", "properties": { "zona": "58", "direccion": "IGUAZU Y USPALLATA", "latitude": -34.64002924, "longitude": -58.40661339, "compromiso": "200 estaciones de Eco Bici(2017)", "accion": "PARQUE PATRICIOS", "eje": "Escala Humana", "Area temática": "", "anio": "2017", "Barrio": "PARQUE PATRICIOS", "Comuna": "4", "segundo": "100", "DESCRIPCION": "200 Estaciones de EcoBici (Estación Parque Patricios)", "Prioridad": "" }, "geometry": { "type": "Point", "coordinates": [ -58.40661339, -34.64002924 ] } },
{ "type": "Feature", "properties": { "zona": "59", "direccion": "REGIMIENTO DE PATRICIOS Y ARAOZ DE LAMADRID", "latitude": -34.63997121, "longitude": -58.36943055, "compromiso": "200 estaciones de Eco Bici(2017)", "accion": "ECOBICI - MINISTERIO DE JUSTICIA Y SEGURIDAD (126)", "eje": "Escala Humana", "Area temática": "", "anio": "2017", "Barrio": "BARRACAS", "Comuna": "4", "segundo": "100", "DESCRIPCION": "", "Prioridad": "" }, "geometry": { "type": "Point", "coordinates": [ -58.36943055, -34.63997121 ] } },
{ "type": "Feature", "properties": { "zona": "60", "direccion": "SENILLOSA 1905 Y ZAÑARTU", "latitude": -34.63850092, "longitude": -58.42547747, "compromiso": "200 estaciones de Eco Bici(2017)", "accion": "ECOBICI - SENILLOSA (67)", "eje": "Escala Humana", "Area temática": "", "anio": "2017", "Barrio": "PARQUE CHACABUCO", "Comuna": "7", "segundo": "100", "DESCRIPCION": "", "Prioridad": "" }, "geometry": { "type": "Point", "coordinates": [ -58.42547747, -34.63850092 ] } },
{ "type": "Feature", "properties": { "zona": "61", "direccion": "AVELINO DIAZ 499 Y DOBLAS", "latitude": -34.63525028, "longitude": -58.42740141, "compromiso": "200 estaciones de Eco Bici(2017)", "accion": "ECOBICI - AVELINO DIAZ (97)", "eje": "Escala Humana", "Area temática": "", "anio": "2017", "Barrio": "PARQUE CHACABUCO", "Comuna": "7", "segundo": "100", "DESCRIPCION": "", "Prioridad": "" }, "geometry": { "type": "Point", "coordinates": [ -58.42740141, -34.63525028 ] } },
{ "type": "Feature", "properties": { "zona": "62", "direccion": "PERDRIEL Y FINOCHIETTO ENRIQUE", "latitude": -34.63494896, "longitude": -58.38776667, "compromiso": "200 estaciones de Eco Bici(2017)", "accion": "ECOBICI - HOSPITAL BRITANICO (138)", "eje": "Escala Humana", "Area temática": "", "anio": "2017", "Barrio": "BARRACAS", "Comuna": "4", "segundo": "100", "DESCRIPCION": "", "Prioridad": "" }, "geometry": { "type": "Point", "coordinates": [ -58.38776667, -34.63494896 ] } },
{ "type": "Feature", "properties": { "zona": "63", "direccion": "PINZON 469 Y MARTIN RODRIGUEZ", "latitude": -34.63407209, "longitude": -58.36093315, "compromiso": "200 estaciones de Eco Bici(2017)", "accion": "ECOBICI - PINZON (176)", "eje": "Escala Humana", "Area temática": "", "anio": "2017", "Barrio": "BOCA", "Comuna": "4", "segundo": "100", "DESCRIPCION": "", "Prioridad": "" }, "geometry": { "type": "Point", "coordinates": [ -58.36093315, -34.63407209 ] } },
{ "type": "Feature", "properties": { "zona": "64", "direccion": "15 DE NOVIEMBRE DE 1889 2687 ENTRE CATAMARCA Y JUJUY", "latitude": -34.63397763, "longitude": -58.40096231, "compromiso": "200 estaciones de Eco Bici(2017)", "accion": "ECOBICI - 15 DE NOVIEMBRE (105)", "eje": "Escala Humana", "Area temática": "", "anio": "2017", "Barrio": "PARQUE PATRICIOS", "Comuna": "4", "segundo": "100", "DESCRIPCION": "", "Prioridad": "" }, "geometry": { "type": "Point", "coordinates": [ -58.40096231, -34.63397763 ] } },
{ "type": "Feature", "properties": { "zona": "65", "direccion": "SALCEDO 3401 Y VIRREY LINIERS", "latitude": -34.63330898, "longitude": -58.41315047, "compromiso": "200 estaciones de Eco Bici(2017)", "accion": "ECOBICI - VIRREY LINIERS (139)", "eje": "Escala Humana", "Area temática": "", "anio": "2017", "Barrio": "BOEDO", "Comuna": "5", "segundo": "100", "DESCRIPCION": "", "Prioridad": "" }, "geometry": { "type": "Point", "coordinates": [ -58.41315047, -34.63330898 ] } },
{ "type": "Feature", "properties": { "zona": "66", "direccion": "SALCEDO 2908 Y DEAN FUNES", "latitude": -34.63172469, "longitude": -58.40501915, "compromiso": "200 estaciones de Eco Bici(2017)", "accion": "ECOBICI - SALCEDO (92)", "eje": "Escala Humana", "Area temática": "", "anio": "2017", "Barrio": "PARQUE PATRICIOS", "Comuna": "4", "segundo": "100", "DESCRIPCION": "", "Prioridad": "" }, "geometry": { "type": "Point", "coordinates": [ -58.40501915, -34.63172469 ] } },
{ "type": "Feature", "properties": { "zona": "67", "direccion": "RUY DIAZ DE GUZMAN Y AV. MARTIN GARCIA", "latitude": -34.63081221, "longitude": -58.37170591, "compromiso": "200 estaciones de Eco Bici(2017)", "accion": "ECOBICI - RUY DIAZ DE GUZMAN (73)", "eje": "Escala Humana", "Area temática": "", "anio": "2017", "Barrio": "BARRACAS", "Comuna": "4", "segundo": "100", "DESCRIPCION": "", "Prioridad": "" }, "geometry": { "type": "Point", "coordinates": [ -58.37170591, -34.63081221 ] } },
{ "type": "Feature", "properties": { "zona": "68", "direccion": "JUAN MANUEL BLANES 383", "latitude": -34.63069281, "longitude": -58.36208336, "compromiso": "200 estaciones de Eco Bici(2017)", "accion": "ECOBICI - JUAN MANUEL BLANES (153)", "eje": "Escala Humana", "Area temática": "", "anio": "2017", "Barrio": "BOCA", "Comuna": "4", "segundo": "100", "DESCRIPCION": "", "Prioridad": "" }, "geometry": { "type": "Point", "coordinates": [ -58.36208336, -34.63069281 ] } },
{ "type": "Feature", "properties": { "zona": "69", "direccion": "CONSTITUCION 4101 Y TREINTA Y TRES ORIENTALES", "latitude": -34.62881737, "longitude": -58.4224224, "compromiso": "200 estaciones de Eco Bici(2017)", "accion": "ECOBICI - TREINTA Y TRES ORIENTALES (49)", "eje": "Escala Humana", "Area temática": "", "anio": "2017", "Barrio": "BOEDO", "Comuna": "5", "segundo": "100", "DESCRIPCION": "", "Prioridad": "" }, "geometry": { "type": "Point", "coordinates": [ -58.4224224, -34.62881737 ] } },
{ "type": "Feature", "properties": { "zona": "70", "direccion": "CAFFARENA AGUSTIN Y DON PEDRO DE MENDOZA", "latitude": -34.62878078, "longitude": -58.35625741, "compromiso": "200 estaciones de Eco Bici(2017)", "accion": "ECOBICI - USINA DEL ARTE (108)", "eje": "Escala Humana", "Area temática": "", "anio": "2017", "Barrio": "BOCA", "Comuna": "4", "segundo": "100", "DESCRIPCION": "", "Prioridad": "" }, "geometry": { "type": "Point", "coordinates": [ -58.35625741, -34.62878078 ] } },
{ "type": "Feature", "properties": { "zona": "71", "direccion": "AV MARTIN GARCIA E IRALA", "latitude": -34.62794705, "longitude": -58.36936035, "compromiso": "200 estaciones de Eco Bici(2017)", "accion": "ECOBICI - PARQUE LEZAMA (6)", "eje": "Escala Humana", "Area temática": "", "anio": "2017", "Barrio": "SAN TELMO", "Comuna": "1", "segundo": "100", "DESCRIPCION": "", "Prioridad": "" }, "geometry": { "type": "Point", "coordinates": [ -58.36936035, -34.62794705 ] } },
{ "type": "Feature", "properties": { "zona": "72", "direccion": "BRASIL Y DEFENSA", "latitude": -34.62560718, "longitude": -58.37098493, "compromiso": "200 estaciones de Eco Bici(2017)", "accion": "ECOBICI - BRASIL (172)", "eje": "Escala Humana", "Area temática": "", "anio": "2017", "Barrio": "SAN TELMO", "Comuna": "1", "segundo": "100", "DESCRIPCION": "", "Prioridad": "" }, "geometry": { "type": "Point", "coordinates": [ -58.37098493, -34.62560718 ] } },
{ "type": "Feature", "properties": { "zona": "73", "direccion": "DOBLAS 608 Y VALLE", "latitude": -34.62412955, "longitude": -58.43031987, "compromiso": "200 estaciones de Eco Bici(2017)", "accion": "ECOBICI - DOBLAS (80)", "eje": "Escala Humana", "Area temática": "", "anio": "2017", "Barrio": "CABALLITO", "Comuna": "6", "segundo": "100", "DESCRIPCION": "", "Prioridad": "" }, "geometry": { "type": "Point", "coordinates": [ -58.43031987, -34.62412955 ] } },
{ "type": "Feature", "properties": { "zona": "74", "direccion": "CARLOS CALVO ENTRE VIRREY LINIERS Y SANCHEZ DE LORIA", "latitude": -34.62285025, "longitude": -58.4123982, "compromiso": "200 estaciones de Eco Bici(2017)", "accion": "ECOBICI - PLAZA BOEDO (28)", "eje": "Escala Humana", "Area temática": "", "anio": "2017", "Barrio": "BOEDO", "Comuna": "5", "segundo": "100", "DESCRIPCION": "", "Prioridad": "" }, "geometry": { "type": "Point", "coordinates": [ -58.4123982, -34.62285025 ] } },
{ "type": "Feature", "properties": { "zona": "75", "direccion": "HOSPITAL FRANCES: CARLOS CALVO Y LA RIOJA", "latitude": -34.62219445, "longitude": -58.40778755, "compromiso": "200 estaciones de Eco Bici(2017)", "accion": "ECOBICI - HOSPITAL FRANCES (146)", "eje": "Escala Humana", "Area temática": "", "anio": "2017", "Barrio": "SAN CRISTOBAL", "Comuna": "3", "segundo": "100", "DESCRIPCION": "", "Prioridad": "" }, "geometry": { "type": "Point", "coordinates": [ -58.40778755, -34.62219445 ] } },
{ "type": "Feature", "properties": { "zona": "76", "direccion": "AV SAN JUAN 632", "latitude": -34.62205994, "longitude": -58.37475251, "compromiso": "200 estaciones de Eco Bici(2017)", "accion": "ECOBICI - PLAZA CECILIA GRIERSON (173)", "eje": "Escala Humana", "Area temática": "", "anio": "2017", "Barrio": "SAN TELMO", "Comuna": "1", "segundo": "100", "DESCRIPCION": "", "Prioridad": "" }, "geometry": { "type": "Point", "coordinates": [ -58.37475251, -34.62205994 ] } },
{ "type": "Feature", "properties": { "zona": "77", "direccion": "SAAVEDRA 1027 ENTRE CARLOS CALVO Y HUMBERTO 1Ñ", "latitude": -34.62135608, "longitude": -58.40172037, "compromiso": "200 estaciones de Eco Bici(2017)", "accion": "ECOBICI - SAAVEDRA (86)", "eje": "Escala Humana", "Area temática": "", "anio": "2017", "Barrio": "SAN CRISTOBAL", "Comuna": "3", "segundo": "100", "DESCRIPCION": "", "Prioridad": "" }, "geometry": { "type": "Point", "coordinates": [ -58.40172037, -34.62135608 ] } },
{ "type": "Feature", "properties": { "zona": "78", "direccion": "CARLOS CALVO Y SARANDI", "latitude": -34.62060134, "longitude": -58.39476949, "compromiso": "200 estaciones de Eco Bici(2017)", "accion": "ECOBICI - CARLOS CALVO (93)", "eje": "Escala Humana", "Area temática": "", "anio": "2017", "Barrio": "SAN CRISTOBAL", "Comuna": "3", "segundo": "100", "DESCRIPCION": "", "Prioridad": "" }, "geometry": { "type": "Point", "coordinates": [ -58.39476949, -34.62060134 ] } },
{ "type": "Feature", "properties": { "zona": "79", "direccion": "GUAYAQUIL 213 Y DOBLAS", "latitude": -34.61982854, "longitude": -58.4315359, "compromiso": "200 estaciones de Eco Bici(2017)", "accion": "ECOBICI - GUAYAQUIL (87)", "eje": "Escala Humana", "Area temática": "", "anio": "2017", "Barrio": "CABALLITO", "Comuna": "6", "segundo": "100", "DESCRIPCION": "", "Prioridad": "" }, "geometry": { "type": "Point", "coordinates": [ -58.4315359, -34.61982854 ] } },
{ "type": "Feature", "properties": { "zona": "80", "direccion": "ROSARIO VERA PEÑALOZA Y OLGA COSSETTINI", "latitude": -34.61808202, "longitude": -58.36309051, "compromiso": "200 estaciones de Eco Bici(2017)", "accion": "ECOBICI - VERA PEÑALOZA (150)", "eje": "Escala Humana", "Area temática": "", "anio": "2017", "Barrio": "PUERTO MADERO", "Comuna": "1", "segundo": "100", "DESCRIPCION": "", "Prioridad": "" }, "geometry": { "type": "Point", "coordinates": [ -58.36309051, -34.61808202 ] } },
{ "type": "Feature", "properties": { "zona": "81", "direccion": "ESTADOS UNIDOS ENTRE AZOPARDO Y HUERGO AV", "latitude": -34.61806695, "longitude": -58.36675529, "compromiso": "200 estaciones de Eco Bici(2017)", "accion": "ECOBICI - FACULTAD DE INGENIERIA (164)", "eje": "Escala Humana", "Area temática": "", "anio": "2017", "Barrio": "SAN TELMO", "Comuna": "1", "segundo": "100", "DESCRIPCION": "", "Prioridad": "" }, "geometry": { "type": "Point", "coordinates": [ -58.36675529, -34.61806695 ] } },
{ "type": "Feature", "properties": { "zona": "82", "direccion": "AGRELO ENTRE  GRAL. URQUIZA, Y GRAL. LA RIOJA", "latitude": -34.61754909, "longitude": -58.40911048, "compromiso": "200 estaciones de Eco Bici(2017)", "accion": "ECOBICI - HOSPITAL RAMOS MEJIA (120)", "eje": "Escala Humana", "Area temática": "", "anio": "2017", "Barrio": "BALVANERA", "Comuna": "3", "segundo": "100", "DESCRIPCION": "", "Prioridad": "" }, "geometry": { "type": "Point", "coordinates": [ -58.40911048, -34.61754909 ] } },
{ "type": "Feature", "properties": { "zona": "83", "direccion": "PASCO 708 ENTRE CHILE Y AV INDEPENDENCIA", "latitude": -34.61749149, "longitude": -58.39754707, "compromiso": "200 estaciones de Eco Bici(2017)", "accion": "ECOBICI - PASCO (91)", "eje": "Escala Humana", "Area temática": "", "anio": "2017", "Barrio": "BALVANERA", "Comuna": "3", "segundo": "100", "DESCRIPCION": "", "Prioridad": "" }, "geometry": { "type": "Point", "coordinates": [ -58.39754707, -34.61749149 ] } },
{ "type": "Feature", "properties": { "zona": "84", "direccion": "VERA PEÑALOSA ENTRE CALABRIA Y JULIETA LANTERI", "latitude": -34.61748582, "longitude": -58.35913143, "compromiso": "200 estaciones de Eco Bici(2017)", "accion": "ECOBICI - JULIETA LANTERI (152)", "eje": "Escala Humana", "Area temática": "", "anio": "2017", "Barrio": "PUERTO MADERO", "Comuna": "1", "segundo": "100", "DESCRIPCION": "", "Prioridad": "" }, "geometry": { "type": "Point", "coordinates": [ -58.35913143, -34.61748582 ] } },
{ "type": "Feature", "properties": { "zona": "85", "direccion": "AV. INDEPENDENCIA Y 9 DE JULIO", "latitude": -34.61737315, "longitude": -58.38048066, "compromiso": "200 estaciones de Eco Bici(2017)", "accion": "ECOBICI - INDEPENDENCIA (18)", "eje": "Escala Humana", "Area temática": "", "anio": "2017", "Barrio": "MONSERRAT", "Comuna": "1", "segundo": "100", "DESCRIPCION": "", "Prioridad": "" }, "geometry": { "type": "Point", "coordinates": [ -58.38048066, -34.61737315 ] } },
{ "type": "Feature", "properties": { "zona": "86", "direccion": "SAAVEDRA Y MEXICO", "latitude": -34.61681258, "longitude": -58.40282668, "compromiso": "200 estaciones de Eco Bici(2017)", "accion": "ECOBICI - MEXICO (118)", "eje": "Escala Humana", "Area temática": "", "anio": "2017", "Barrio": "BALVANERA", "Comuna": "3", "segundo": "100", "DESCRIPCION": "", "Prioridad": "" }, "geometry": { "type": "Point", "coordinates": [ -58.40282668, -34.61681258 ] } },
{ "type": "Feature", "properties": { "zona": "87", "direccion": "PERU 726", "latitude": -34.61637848, "longitude": -58.37438882, "compromiso": "200 estaciones de Eco Bici(2017)", "accion": "ECOBICI - CHILE (46)", "eje": "Escala Humana", "Area temática": "", "anio": "2017", "Barrio": "SAN TELMO", "Comuna": "1", "segundo": "100", "DESCRIPCION": "", "Prioridad": "" }, "geometry": { "type": "Point", "coordinates": [ -58.37438882, -34.61637848 ] } },
{ "type": "Feature", "properties": { "zona": "88", "direccion": "BALCARCE 683 ENTRE CHILE Y DEFENSA", "latitude": -34.61584741, "longitude": -58.37087877, "compromiso": "200 estaciones de Eco Bici(2017)", "accion": "ECOBICI - BALCARCE (81)", "eje": "Escala Humana", "Area temática": "", "anio": "2017", "Barrio": "MONSERRAT", "Comuna": "1", "segundo": "100", "DESCRIPCION": "", "Prioridad": "" }, "geometry": { "type": "Point", "coordinates": [ -58.37087877, -34.61584741 ] } },
{ "type": "Feature", "properties": { "zona": "89", "direccion": "MOREAU DE JUSTO 1500", "latitude": -34.61555143, "longitude": -58.36574586, "compromiso": "200 estaciones de Eco Bici(2017)", "accion": "ECOBICI - PUERTO MADERO - UCA (10)", "eje": "Escala Humana", "Area temática": "", "anio": "2017", "Barrio": "PUERTO MADERO", "Comuna": "1", "segundo": "100", "DESCRIPCION": "", "Prioridad": "" }, "geometry": { "type": "Point", "coordinates": [ -58.36574586, -34.61555143 ] } },
{ "type": "Feature", "properties": { "zona": "90", "direccion": "LIMA Y MEXICO", "latitude": -34.61536396, "longitude": -58.38143489, "compromiso": "200 estaciones de Eco Bici(2017)", "accion": "ECOBICI - LIMA (149)", "eje": "Escala Humana", "Area temática": "", "anio": "2017", "Barrio": "MONSERRAT", "Comuna": "1", "segundo": "100", "DESCRIPCION": "", "Prioridad": "" }, "geometry": { "type": "Point", "coordinates": [ -58.38143489, -34.61536396 ] } },
{ "type": "Feature", "properties": { "zona": "91", "direccion": "VENEZUELA 2091 Y RINCON", "latitude": -34.6151962, "longitude": -58.39589747, "compromiso": "200 estaciones de Eco Bici(2017)", "accion": "ECOBICI - RINCON (106)", "eje": "Escala Humana", "Area temática": "", "anio": "2017", "Barrio": "BALVANERA", "Comuna": "3", "segundo": "100", "DESCRIPCION": "", "Prioridad": "" }, "geometry": { "type": "Point", "coordinates": [ -58.39589747, -34.6151962 ] } },
{ "type": "Feature", "properties": { "zona": "92", "direccion": "BALCARCE 482 ENTRE BELGRANO Y VENEZUELA", "latitude": -34.61338465, "longitude": -58.37057662, "compromiso": "200 estaciones de Eco Bici(2017)", "accion": "ECOBICI - BELGRANO (57)", "eje": "Escala Humana", "Area temática": "", "anio": "2017", "Barrio": "MONSERRAT", "Comuna": "1", "segundo": "100", "DESCRIPCION": "", "Prioridad": "" }, "geometry": { "type": "Point", "coordinates": [ -58.37057662, -34.61338465 ] } },
{ "type": "Feature", "properties": { "zona": "93", "direccion": "MISIONES ENTRE ADOLFO ALSINA Y MORENO", "latitude": -34.61286709, "longitude": -58.40423005, "compromiso": "200 estaciones de Eco Bici(2017)", "accion": "ECOBICI - MISIONES  (88)", "eje": "Escala Humana", "Area temática": "", "anio": "2017", "Barrio": "BALVANERA", "Comuna": "3", "segundo": "100", "DESCRIPCION": "", "Prioridad": "" }, "geometry": { "type": "Point", "coordinates": [ -58.40423005, -34.61286709 ] } },
{ "type": "Feature", "properties": { "zona": "94", "direccion": "9 DE JULIO Y MORENO", "latitude": -34.6123893, "longitude": -58.38076631, "compromiso": "200 estaciones de Eco Bici(2017)", "accion": "ECOBICI - 9 DE JULIO (112)", "eje": "Escala Humana", "Area temática": "", "anio": "2017", "Barrio": "MONSERRAT", "Comuna": "1", "segundo": "100", "DESCRIPCION": "", "Prioridad": "" }, "geometry": { "type": "Point", "coordinates": [ -58.38076631, -34.6123893 ] } },
{ "type": "Feature", "properties": { "zona": "95", "direccion": "PICHINCHA ENTRE ADOLFO ALSINA Y MORENO", "latitude": -34.61212359, "longitude": -58.3989047, "compromiso": "200 estaciones de Eco Bici(2017)", "accion": "ECOBICI - PLAZA PRIMERO DE MAYO (75)", "eje": "Escala Humana", "Area temática": "", "anio": "2017", "Barrio": "BALVANERA", "Comuna": "3", "segundo": "100", "DESCRIPCION": "", "Prioridad": "" }, "geometry": { "type": "Point", "coordinates": [ -58.3989047, -34.61212359 ] } },
{ "type": "Feature", "properties": { "zona": "96", "direccion": "DON BOSCO Y VIRREY LINIERS", "latitude": -34.61187588, "longitude": -58.41551584, "compromiso": "200 estaciones de Eco Bici(2017)", "accion": "ECOBICI - DON BOSCO (134)", "eje": "Escala Humana", "Area temática": "", "anio": "2017", "Barrio": "ALMAGRO", "Comuna": "5", "segundo": "100", "DESCRIPCION": "", "Prioridad": "" }, "geometry": { "type": "Point", "coordinates": [ -58.41551584, -34.61187588 ] } },
{ "type": "Feature", "properties": { "zona": "97", "direccion": "AZUCENA VILLAFLOR 553 ENTRE CALABRIA Y AIME PAINE", "latitude": -34.61180791, "longitude": -58.3609058, "compromiso": "200 estaciones de Eco Bici(2017)", "accion": "ECOBICI - AIME PAINE (151)", "eje": "Escala Humana", "Area temática": "", "anio": "2017", "Barrio": "PUERTO MADERO", "Comuna": "1", "segundo": "100", "DESCRIPCION": "", "Prioridad": "" }, "geometry": { "type": "Point", "coordinates": [ -58.3609058, -34.61180791 ] } },
{ "type": "Feature", "properties": { "zona": "98", "direccion": "AZUCENA VILLAFLOR Y PIERINA DEALESSI", "latitude": -34.61172068, "longitude": -58.36396908, "compromiso": "200 estaciones de Eco Bici(2017)", "accion": "ECOBICI - AZUCENA VILLAFLOR (79)", "eje": "Escala Humana", "Area temática": "", "anio": "2017", "Barrio": "PUERTO MADERO", "Comuna": "1", "segundo": "100", "DESCRIPCION": "", "Prioridad": "" }, "geometry": { "type": "Point", "coordinates": [ -58.36396908, -34.61172068 ] } },
{ "type": "Feature", "properties": { "zona": "99", "direccion": "MORENO 834 ENTRE TACUARI Y PIEDRAS", "latitude": -34.611714, "longitude": -58.37812172, "compromiso": "200 estaciones de Eco Bici(2017)", "accion": "ECOBICI - MORENO (98)", "eje": "Escala Humana", "Area temática": "", "anio": "2017", "Barrio": "MONSERRAT", "Comuna": "1", "segundo": "100", "DESCRIPCION": "", "Prioridad": "" }, "geometry": { "type": "Point", "coordinates": [ -58.37812172, -34.611714 ] } },
{ "type": "Feature", "properties": { "zona": "100", "direccion": "SARANDI ENTRE ADOLFO ALSINA E HIPOLITO YRIGOYEN", "latitude": -34.61127031, "longitude": -58.3948309, "compromiso": "200 estaciones de Eco Bici(2017)", "accion": "ECOBICI - SARANDI (77)", "eje": "Escala Humana", "Area temática": "", "anio": "2017", "Barrio": "BALVANERA", "Comuna": "3", "segundo": "100", "DESCRIPCION": "", "Prioridad": "" }, "geometry": { "type": "Point", "coordinates": [ -58.3948309, -34.61127031 ] } },
{ "type": "Feature", "properties": { "zona": "101", "direccion": "AV. ING.HUERGO Y AV. BELGRANO", "latitude": -34.61124202, "longitude": -58.36891784, "compromiso": "200 estaciones de Eco Bici(2017)", "accion": "ECOBICI - ADUANA (3)", "eje": "Escala Humana", "Area temática": "", "anio": "2017", "Barrio": "MONSERRAT", "Comuna": "1", "segundo": "100", "DESCRIPCION": "", "Prioridad": "" }, "geometry": { "type": "Point", "coordinates": [ -58.36891784, -34.61124202 ] } },
{ "type": "Feature", "properties": { "zona": "102", "direccion": "BOLIVAR ENTRE ADOLFO ALSINA Y MORENO", "latitude": -34.61078242, "longitude": -58.37355746, "compromiso": "200 estaciones de Eco Bici(2017)", "accion": "ECOBICI - COLEGIO NACIONAL BUENOS AIRES (47)", "eje": "Escala Humana", "Area temática": "", "anio": "2017", "Barrio": "MONSERRAT", "Comuna": "1", "segundo": "100", "DESCRIPCION": "", "Prioridad": "" }, "geometry": { "type": "Point", "coordinates": [ -58.37355746, -34.61078242 ] } },
{ "type": "Feature", "properties": { "zona": "103", "direccion": "ADOLFO ALSINA Y BERNARDO DE IRIGOYEN", "latitude": -34.61057222, "longitude": -58.38076694, "compromiso": "200 estaciones de Eco Bici(2017)", "accion": "ECOBICI - ALSINA (24)", "eje": "Escala Humana", "Area temática": "", "anio": "2017", "Barrio": "MONSERRAT", "Comuna": "1", "segundo": "100", "DESCRIPCION": "", "Prioridad": "" }, "geometry": { "type": "Point", "coordinates": [ -58.38076694, -34.61057222 ] } },
{ "type": "Feature", "properties": { "zona": "104", "direccion": "PERU Y DIAGONAL SUR", "latitude": -34.60995934, "longitude": -58.37471724, "compromiso": "200 estaciones de Eco Bici(2017)", "accion": "ECOBICI - LEGISLATURA (EX PLAZA DE MAYO) (16)", "eje": "Escala Humana", "Area temática": "", "anio": "2017", "Barrio": "MONSERRAT", "Comuna": "1", "segundo": "100", "DESCRIPCION": "", "Prioridad": "" }, "geometry": { "type": "Point", "coordinates": [ -58.37471724, -34.60995934 ] } },
{ "type": "Feature", "properties": { "zona": "105", "direccion": "AV. HIPOLITO YRIGOYEN Y VIRREY CEBALLOS", "latitude": -34.60993046, "longitude": -58.38925326, "compromiso": "200 estaciones de Eco Bici(2017)", "accion": "ECOBICI - CONGRESO (8)", "eje": "Escala Humana", "Area temática": "", "anio": "2017", "Barrio": "MONSERRAT", "Comuna": "1", "segundo": "100", "DESCRIPCION": "", "Prioridad": "" }, "geometry": { "type": "Point", "coordinates": [ -58.38925326, -34.60993046 ] } },
{ "type": "Feature", "properties": { "zona": "106", "direccion": "PLAZA MISERERE", "latitude": -34.609622, "longitude": -58.40659928, "compromiso": "200 estaciones de Eco Bici(2017)", "accion": "ECOBICI - ONCE (13)", "eje": "Escala Humana", "Area temática": "", "anio": "2017", "Barrio": "BALVANERA", "Comuna": "3", "segundo": "100", "DESCRIPCION": "", "Prioridad": "" }, "geometry": { "type": "Point", "coordinates": [ -58.40659928, -34.609622 ] } },
{ "type": "Feature", "properties": { "zona": "107", "direccion": "BALCARCE 101 ENTRE AV. HIPOLITO YRIGOYEN Y ALSINA", "latitude": -34.60908604, "longitude": -58.37083437, "compromiso": "200 estaciones de Eco Bici(2017)", "accion": "ECOBICI - MINISTERIO DE ECONOMIA (61)", "eje": "Escala Humana", "Area temática": "", "anio": "2017", "Barrio": "MONSERRAT", "Comuna": "1", "segundo": "100", "DESCRIPCION": "", "Prioridad": "" }, "geometry": { "type": "Point", "coordinates": [ -58.37083437, -34.60908604 ] } },
{ "type": "Feature", "properties": { "zona": "108", "direccion": "PATRICIAS ARGENTINAS Y CARLOS FINLAY", "latitude": -34.60845904, "longitude": -58.43457679, "compromiso": "200 estaciones de Eco Bici(2017)", "accion": "ECOBICI - PARQUE CENTENARIO (29)", "eje": "Escala Humana", "Area temática": "", "anio": "2017", "Barrio": "CABALLITO", "Comuna": "6", "segundo": "100", "DESCRIPCION": "", "Prioridad": "" }, "geometry": { "type": "Point", "coordinates": [ -58.43457679, -34.60845904 ] } },
{ "type": "Feature", "properties": { "zona": "109", "direccion": "ESMERALDA Y RIVADAVIA", "latitude": -34.60791436, "longitude": -58.37786401, "compromiso": "200 estaciones de Eco Bici(2017)", "accion": "ECOBICI - PIEDRAS (37)", "eje": "Escala Humana", "Area temática": "", "anio": "2017", "Barrio": "SAN NICOLAS", "Comuna": "1", "segundo": "100", "DESCRIPCION": "", "Prioridad": "" }, "geometry": { "type": "Point", "coordinates": [ -58.37786401, -34.60791436 ] } },
{ "type": "Feature", "properties": { "zona": "110", "direccion": "SAN MARTIN Y RIVADAVIA", "latitude": -34.6077278, "longitude": -58.37353143, "compromiso": "200 estaciones de Eco Bici(2017)", "accion": "ECOBICI - CATEDRAL (32)", "eje": "Escala Humana", "Area temática": "", "anio": "2017", "Barrio": "SAN NICOLAS", "Comuna": "1", "segundo": "100", "DESCRIPCION": "", "Prioridad": "" }, "geometry": { "type": "Point", "coordinates": [ -58.37353143, -34.6077278 ] } },
{ "type": "Feature", "properties": { "zona": "111", "direccion": "SANCHEZ DE BUSTAMANTE Y PERON JUAN", "latitude": -34.60708901, "longitude": -58.41466775, "compromiso": "200 estaciones de Eco Bici(2017)", "accion": "ECOBICI - SANCHEZ DE BUSTAMANTE (52)", "eje": "Escala Humana", "Area temática": "", "anio": "2017", "Barrio": "ALMAGRO", "Comuna": "5", "segundo": "100", "DESCRIPCION": "", "Prioridad": "" }, "geometry": { "type": "Point", "coordinates": [ -58.41466775, -34.60708901 ] } },
{ "type": "Feature", "properties": { "zona": "112", "direccion": "DR. RODOLFO RIVAROLA 175 ENTRE TTE. GRAL. JUAN DOMINGO PERON Y BARTOLOME MITRE", "latitude": -34.60664735, "longitude": -58.38539757, "compromiso": "200 estaciones de Eco Bici(2017)", "accion": "ECOBICI - RIVAROLA (68)", "eje": "Escala Humana", "Area temática": "", "anio": "2017", "Barrio": "SAN NICOLAS", "Comuna": "1", "segundo": "100", "DESCRIPCION": "", "Prioridad": "" }, "geometry": { "type": "Point", "coordinates": [ -58.38539757, -34.60664735 ] } },
{ "type": "Feature", "properties": { "zona": "113", "direccion": "PLAZA ALMAGRO", "latitude": -34.60639853, "longitude": -58.41883221, "compromiso": "200 estaciones de Eco Bici(2017)", "accion": "ECOBICI - PLAZA ALMAGRO (17)", "eje": "Escala Humana", "Area temática": "", "anio": "2017", "Barrio": "ALMAGRO", "Comuna": "5", "segundo": "100", "DESCRIPCION": "", "Prioridad": "" }, "geometry": { "type": "Point", "coordinates": [ -58.41883221, -34.60639853 ] } },
{ "type": "Feature", "properties": { "zona": "114", "direccion": "AV. 9 DE JULIO Y TTE. GRAL JUAN DOMINGO PERON", "latitude": -34.6058405, "longitude": -58.3809896, "compromiso": "200 estaciones de Eco Bici(2017)", "accion": "ECOBICI - OBELISCO (7)", "eje": "Escala Humana", "Area temática": "", "anio": "2017", "Barrio": "SAN NICOLAS", "Comuna": "1", "segundo": "100", "DESCRIPCION": "", "Prioridad": "" }, "geometry": { "type": "Point", "coordinates": [ -58.3809896, -34.6058405 ] } },
{ "type": "Feature", "properties": { "zona": "115", "direccion": "PERON JUAN ENTRE 25 DE MAYO Y RECONQUISTA", "latitude": -34.60549118, "longitude": -58.37159486, "compromiso": "200 estaciones de Eco Bici(2017)", "accion": "ECOBICI - PERON (48)", "eje": "Escala Humana", "Area temática": "", "anio": "2017", "Barrio": "SAN NICOLAS", "Comuna": "1", "segundo": "100", "DESCRIPCION": "", "Prioridad": "" }, "geometry": { "type": "Point", "coordinates": [ -58.37159486, -34.60549118 ] } },
{ "type": "Feature", "properties": { "zona": "116", "direccion": "MAIPU Y SARMIENTO", "latitude": -34.60536887, "longitude": -58.37659603, "compromiso": "200 estaciones de Eco Bici(2017)", "accion": "ECOBICI - MAIPU (36)", "eje": "Escala Humana", "Area temática": "", "anio": "2017", "Barrio": "SAN NICOLAS", "Comuna": "1", "segundo": "100", "DESCRIPCION": "", "Prioridad": "" }, "geometry": { "type": "Point", "coordinates": [ -58.37659603, -34.60536887 ] } },
{ "type": "Feature", "properties": { "zona": "117", "direccion": "MACACHA GUEMES Y JUANA MANSO", "latitude": -34.60496916, "longitude": -58.36299966, "compromiso": "200 estaciones de Eco Bici(2017)", "accion": "ECOBICI - MACACHA GUEMES (111)", "eje": "Escala Humana", "Area temática": "", "anio": "2017", "Barrio": "PUERTO MADERO", "Comuna": "1", "segundo": "100", "DESCRIPCION": "", "Prioridad": "" }, "geometry": { "type": "Point", "coordinates": [ -58.36299966, -34.60496916 ] } },
{ "type": "Feature", "properties": { "zona": "118", "direccion": "BILLINGHURST 455 Y VALENTIN GOMEZ", "latitude": -34.60463523, "longitude": -58.4157587, "compromiso": "200 estaciones de Eco Bici(2017)", "accion": "ECOBICI - BILLINGHURST Y VALENTIN GOMEZ (143)", "eje": "Escala Humana", "Area temática": "", "anio": "2017", "Barrio": "ALMAGRO", "Comuna": "5", "segundo": "100", "DESCRIPCION": "", "Prioridad": "" }, "geometry": { "type": "Point", "coordinates": [ -58.4157587, -34.60463523 ] } },
{ "type": "Feature", "properties": { "zona": "119", "direccion": "SARMIENTO 481, ENTRE RECONQUISTA Y SAN MARTIN", "latitude": -34.60439806, "longitude": -58.3733711, "compromiso": "200 estaciones de Eco Bici(2017)", "accion": "ECOBICI - SARMIENTO (40)", "eje": "Escala Humana", "Area temática": "", "anio": "2017", "Barrio": "SAN NICOLAS", "Comuna": "1", "segundo": "100", "DESCRIPCION": "", "Prioridad": "" }, "geometry": { "type": "Point", "coordinates": [ -58.3733711, -34.60439806 ] } },
{ "type": "Feature", "properties": { "zona": "120", "direccion": "PLAZA HIPOLITO BOUCHARD - AV EDUARDO MADERO Y PERON JUAN", "latitude": -34.60412886, "longitude": -58.36823197, "compromiso": "200 estaciones de Eco Bici(2017)", "accion": "ECOBICI - PLAZA HIPOLITO BOUCHARD (128)", "eje": "Escala Humana", "Area temática": "", "anio": "2017", "Barrio": "SAN NICOLAS", "Comuna": "1", "segundo": "100", "DESCRIPCION": "", "Prioridad": "" }, "geometry": { "type": "Point", "coordinates": [ -58.36823197, -34.60412886 ] } },
{ "type": "Feature", "properties": { "zona": "121", "direccion": "ESMERALDA Y AV CORRIENTES", "latitude": -34.60371878, "longitude": -58.37810664, "compromiso": "200 estaciones de Eco Bici(2017)", "accion": "ECOBICI - ESMERALDA Y CORRIENTES (175)", "eje": "Escala Humana", "Area temática": "", "anio": "2017", "Barrio": "SAN NICOLAS", "Comuna": "1", "segundo": "100", "DESCRIPCION": "", "Prioridad": "" }, "geometry": { "type": "Point", "coordinates": [ -58.37810664, -34.60371878 ] } },
{ "type": "Feature", "properties": { "zona": "122", "direccion": "PADILLA Y WARNES AV", "latitude": -34.60316236, "longitude": -58.43970922, "compromiso": "200 estaciones de Eco Bici(2017)", "accion": "ECOBICI - PADILLA (31)", "eje": "Escala Humana", "Area temática": "", "anio": "2017", "Barrio": "VILLA CRESPO", "Comuna": "15", "segundo": "100", "DESCRIPCION": "", "Prioridad": "" }, "geometry": { "type": "Point", "coordinates": [ -58.43970922, -34.60316236 ] } },
{ "type": "Feature", "properties": { "zona": "123", "direccion": "AV CORRIENTES Y SAN MARTIN", "latitude": -34.60312087, "longitude": -58.37367608, "compromiso": "200 estaciones de Eco Bici(2017)", "accion": "ECOBICI - CORRIENTES (132)", "eje": "Escala Humana", "Area temática": "", "anio": "2017", "Barrio": "SAN NICOLAS", "Comuna": "1", "segundo": "100", "DESCRIPCION": "", "Prioridad": "" }, "geometry": { "type": "Point", "coordinates": [ -58.37367608, -34.60312087 ] } },
{ "type": "Feature", "properties": { "zona": "124", "direccion": "LAVALLE ENTTRE MONTEVIDEO Y PARANA", "latitude": -34.60300444, "longitude": -58.38841509, "compromiso": "200 estaciones de Eco Bici(2017)", "accion": "ECOBICI - PARANA (83)", "eje": "Escala Humana", "Area temática": "", "anio": "2017", "Barrio": "SAN NICOLAS", "Comuna": "1", "segundo": "100", "DESCRIPCION": "", "Prioridad": "" }, "geometry": { "type": "Point", "coordinates": [ -58.38841509, -34.60300444 ] } },
{ "type": "Feature", "properties": { "zona": "125", "direccion": "AV. ROQUE SAENZ PEÑA 1149 ENTRE LIBERTAD Y CERRITO", "latitude": -34.60299577, "longitude": -58.38284297, "compromiso": "200 estaciones de Eco Bici(2017)", "accion": "ECOBICI - CERRITO (71)", "eje": "Escala Humana", "Area temática": "", "anio": "2017", "Barrio": "SAN NICOLAS", "Comuna": "1", "segundo": "100", "DESCRIPCION": "", "Prioridad": "" }, "geometry": { "type": "Point", "coordinates": [ -58.38284297, -34.60299577 ] } },
{ "type": "Feature", "properties": { "zona": "126", "direccion": "AYACUCHO 595 ENTRE TUCUMAN Y LAVALLE", "latitude": -34.60229012, "longitude": -58.39547166, "compromiso": "200 estaciones de Eco Bici(2017)", "accion": "ECOBICI - LAVALLE (84)", "eje": "Escala Humana", "Area temática": "", "anio": "2017", "Barrio": "BALVANERA", "Comuna": "3", "segundo": "100", "DESCRIPCION": "", "Prioridad": "" }, "geometry": { "type": "Point", "coordinates": [ -58.39547166, -34.60229012 ] } },
{ "type": "Feature", "properties": { "zona": "127", "direccion": "ESMERALDA 510", "latitude": -34.6020919, "longitude": -58.37817354, "compromiso": "200 estaciones de Eco Bici(2017)", "accion": "ECOBICI - ESMERALDA (95)", "eje": "Escala Humana", "Area temática": "", "anio": "2017", "Barrio": "SAN NICOLAS", "Comuna": "1", "segundo": "100", "DESCRIPCION": "", "Prioridad": "" }, "geometry": { "type": "Point", "coordinates": [ -58.37817354, -34.6020919 ] } },
{ "type": "Feature", "properties": { "zona": "128", "direccion": "HUMAHUACA 3918", "latitude": -34.60205792, "longitude": -58.41967786, "compromiso": "200 estaciones de Eco Bici(2017)", "accion": "ECOBICI - HUMAHUACA (161)", "eje": "Escala Humana", "Area temática": "", "anio": "2017", "Barrio": "ALMAGRO", "Comuna": "5", "segundo": "100", "DESCRIPCION": "", "Prioridad": "" }, "geometry": { "type": "Point", "coordinates": [ -58.41967786, -34.60205792 ] } },
{ "type": "Feature", "properties": { "zona": "129", "direccion": "BOULOGNE SUR MER Y TUCUMAN", "latitude": -34.60177971, "longitude": -58.40579041, "compromiso": "200 estaciones de Eco Bici(2017)", "accion": "ECOBICI - PUEYRREDON (144)", "eje": "Escala Humana", "Area temática": "", "anio": "2017", "Barrio": "BALVANERA", "Comuna": "3", "segundo": "100", "DESCRIPCION": "", "Prioridad": "" }, "geometry": { "type": "Point", "coordinates": [ -58.40579041, -34.60177971 ] } },
{ "type": "Feature", "properties": { "zona": "130", "direccion": "GUARDIA VIEJA 3606 ENTRE BILLINGHURST Y MARIO BRAVO", "latitude": -34.6017606, "longitude": -58.4154594, "compromiso": "200 estaciones de Eco Bici(2017)", "accion": "ECOBICI - GUARDIA VIEJA (110)", "eje": "Escala Humana", "Area temática": "", "anio": "2017", "Barrio": "ALMAGRO", "Comuna": "5", "segundo": "100", "DESCRIPCION": "", "Prioridad": "" }, "geometry": { "type": "Point", "coordinates": [ -58.4154594, -34.6017606 ] } },
{ "type": "Feature", "properties": { "zona": "131", "direccion": "LAVALLE Y BOUCHARD", "latitude": -34.60172109, "longitude": -58.36895038, "compromiso": "200 estaciones de Eco Bici(2017)", "accion": "ECOBICI - PLAZA ROMA (4)", "eje": "Escala Humana", "Area temática": "", "anio": "2017", "Barrio": "SAN NICOLAS", "Comuna": "1", "segundo": "100", "DESCRIPCION": "", "Prioridad": "" }, "geometry": { "type": "Point", "coordinates": [ -58.36895038, -34.60172109 ] } },
{ "type": "Feature", "properties": { "zona": "132", "direccion": "25 DE MAYO Y LAVALLE", "latitude": -34.6016385, "longitude": -58.37115547, "compromiso": "200 estaciones de Eco Bici(2017)", "accion": "ECOBICI - 25 DE MAYO (60)", "eje": "Escala Humana", "Area temática": "", "anio": "2017", "Barrio": "SAN NICOLAS", "Comuna": "1", "segundo": "100", "DESCRIPCION": "", "Prioridad": "" }, "geometry": { "type": "Point", "coordinates": [ -58.37115547, -34.6016385 ] } },
{ "type": "Feature", "properties": { "zona": "133", "direccion": "TUCUMAN Y URUGUAY", "latitude": -34.60161603, "longitude": -58.38691266, "compromiso": "200 estaciones de Eco Bici(2017)", "accion": "ECOBICI - URUGUAY (45)", "eje": "Escala Humana", "Area temática": "", "anio": "2017", "Barrio": "SAN NICOLAS", "Comuna": "1", "segundo": "100", "DESCRIPCION": "", "Prioridad": "" }, "geometry": { "type": "Point", "coordinates": [ -58.38691266, -34.60161603 ] } },
{ "type": "Feature", "properties": { "zona": "134", "direccion": "TUCUMAN Y CERRITO", "latitude": -34.60158617, "longitude": -58.38244877, "compromiso": "200 estaciones de Eco Bici(2017)", "accion": "ECOBICI - TUCUMAN (51)", "eje": "Escala Humana", "Area temática": "", "anio": "2017", "Barrio": "SAN NICOLAS", "Comuna": "1", "segundo": "100", "DESCRIPCION": "", "Prioridad": "" }, "geometry": { "type": "Point", "coordinates": [ -58.38244877, -34.60158617 ] } },
{ "type": "Feature", "properties": { "zona": "135", "direccion": "TRIBUNALES", "latitude": -34.60131281, "longitude": -58.38502161, "compromiso": "200 estaciones de Eco Bici(2017)", "accion": "ECOBICI - TRIBUNALES (11)", "eje": "Escala Humana", "Area temática": "", "anio": "2017", "Barrio": "SAN NICOLAS", "Comuna": "1", "segundo": "100", "DESCRIPCION": "", "Prioridad": "" }, "geometry": { "type": "Point", "coordinates": [ -58.38502161, -34.60131281 ] } },
{ "type": "Feature", "properties": { "zona": "136", "direccion": "EMMA DE LA BARRA Y JUANA MANSO", "latitude": -34.60100069, "longitude": -58.36360359, "compromiso": "200 estaciones de Eco Bici(2017)", "accion": "ECOBICI - JUANA MANSO (26)", "eje": "Escala Humana", "Area temática": "", "anio": "2017", "Barrio": "PUERTO MADERO", "Comuna": "1", "segundo": "100", "DESCRIPCION": "", "Prioridad": "" }, "geometry": { "type": "Point", "coordinates": [ -58.36360359, -34.60100069 ] } },
{ "type": "Feature", "properties": { "zona": "137", "direccion": "YATAY 925 ENTRE HUMAHUACA Y GUARDIA VIEJA", "latitude": -34.60081839, "longitude": -58.42826759, "compromiso": "200 estaciones de Eco Bici(2017)", "accion": "ECOBICI - YATAY (121)", "eje": "Escala Humana", "Area temática": "", "anio": "2017", "Barrio": "ALMAGRO", "Comuna": "5", "segundo": "100", "DESCRIPCION": "", "Prioridad": "" }, "geometry": { "type": "Point", "coordinates": [ -58.42826759, -34.60081839 ] } },
{ "type": "Feature", "properties": { "zona": "138", "direccion": "SUIPACHA Y VIAMONTE", "latitude": -34.60029578, "longitude": -58.37956612, "compromiso": "200 estaciones de Eco Bici(2017)", "accion": "ECOBICI - SUIPACHA (23)", "eje": "Escala Humana", "Area temática": "", "anio": "2017", "Barrio": "SAN NICOLAS", "Comuna": "1", "segundo": "100", "DESCRIPCION": "", "Prioridad": "" }, "geometry": { "type": "Point", "coordinates": [ -58.37956612, -34.60029578 ] } },
{ "type": "Feature", "properties": { "zona": "139", "direccion": "GALLO Y TUCUMAN", "latitude": -34.60022486, "longitude": -58.41210472, "compromiso": "200 estaciones de Eco Bici(2017)", "accion": "ECOBICI - GALLO (154)", "eje": "Escala Humana", "Area temática": "", "anio": "2017", "Barrio": "BALVANERA", "Comuna": "3", "segundo": "100", "DESCRIPCION": "", "Prioridad": "" }, "geometry": { "type": "Point", "coordinates": [ -58.41210472, -34.60022486 ] } },
{ "type": "Feature", "properties": { "zona": "140", "direccion": "VELASCO 285 ENTRE JULIAN ALVAREZ Y LAVALLEJA", "latitude": -34.60016466, "longitude": -58.43495487, "compromiso": "200 estaciones de Eco Bici(2017)", "accion": "ECOBICI - VELASCO (129)", "eje": "Escala Humana", "Area temática": "", "anio": "2017", "Barrio": "VILLA CRESPO", "Comuna": "15", "segundo": "100", "DESCRIPCION": "", "Prioridad": "" }, "geometry": { "type": "Point", "coordinates": [ -58.43495487, -34.60016466 ] } },
{ "type": "Feature", "properties": { "zona": "141", "direccion": "ACEVEDO Y PADILLA", "latitude": -34.59981257, "longitude": -58.44290127, "compromiso": "200 estaciones de Eco Bici(2017)", "accion": "ECOBICI - ACEVEDO (136)", "eje": "Escala Humana", "Area temática": "", "anio": "2017", "Barrio": "VILLA CRESPO", "Comuna": "15", "segundo": "100", "DESCRIPCION": "", "Prioridad": "" }, "geometry": { "type": "Point", "coordinates": [ -58.44290127, -34.59981257 ] } },
{ "type": "Feature", "properties": { "zona": "142", "direccion": "SAN MARTIN 710, ENTRE VIAMONTE Y CORDOBA", "latitude": -34.59957943, "longitude": -58.37415729, "compromiso": "200 estaciones de Eco Bici(2017)", "accion": "ECOBICI - GALERIAS PACIFICO (34)", "eje": "Escala Humana", "Area temática": "", "anio": "2017", "Barrio": "SAN NICOLAS", "Comuna": "1", "segundo": "100", "DESCRIPCION": "", "Prioridad": "" }, "geometry": { "type": "Point", "coordinates": [ -58.37415729, -34.59957943 ] } },
{ "type": "Feature", "properties": { "zona": "143", "direccion": "AV. CORDOBA Y MONTEVIDEO", "latitude": -34.59956788, "longitude": -58.389896, "compromiso": "200 estaciones de Eco Bici(2017)", "accion": "ECOBICI - MONTEVIDEO (27)", "eje": "Escala Humana", "Area temática": "", "anio": "2017", "Barrio": "SAN NICOLAS", "Comuna": "1", "segundo": "100", "DESCRIPCION": "", "Prioridad": "" }, "geometry": { "type": "Point", "coordinates": [ -58.389896, -34.59956788 ] } },
{ "type": "Feature", "properties": { "zona": "144", "direccion": "VIAMONTE 101 Y BOUCHARD", "latitude": -34.59933746, "longitude": -58.36962171, "compromiso": "200 estaciones de Eco Bici(2017)", "accion": "ECOBICI - BOUCHARD (55)", "eje": "Escala Humana", "Area temática": "", "anio": "2017", "Barrio": "SAN NICOLAS", "Comuna": "1", "segundo": "100", "DESCRIPCION": "", "Prioridad": "" }, "geometry": { "type": "Point", "coordinates": [ -58.36962171, -34.59933746 ] } },
{ "type": "Feature", "properties": { "zona": "145", "direccion": "PLAZA HOUSSAY", "latitude": -34.59918985, "longitude": -58.39852145, "compromiso": "200 estaciones de Eco Bici(2017)", "accion": "ECOBICI - PLAZA HOUSSAY (43)", "eje": "Escala Humana", "Area temática": "", "anio": "2017", "Barrio": "RECOLETA", "Comuna": "2", "segundo": "100", "DESCRIPCION": "", "Prioridad": "" }, "geometry": { "type": "Point", "coordinates": [ -58.39852145, -34.59918985 ] } },
{ "type": "Feature", "properties": { "zona": "146", "direccion": "LAVALLE Y ACUÑA DE FIGUEROA", "latitude": -34.59822218, "longitude": -58.42170461, "compromiso": "200 estaciones de Eco Bici(2017)", "accion": "ECOBICI - ACUÑA DE FIGUEROA (54)", "eje": "Escala Humana", "Area temática": "", "anio": "2017", "Barrio": "ALMAGRO", "Comuna": "5", "segundo": "100", "DESCRIPCION": "", "Prioridad": "" }, "geometry": { "type": "Point", "coordinates": [ -58.42170461, -34.59822218 ] } },
{ "type": "Feature", "properties": { "zona": "147", "direccion": "URIBURU Y MARCELO T. DE ALVEAR", "latitude": -34.59712661, "longitude": -58.39871709, "compromiso": "200 estaciones de Eco Bici(2017)", "accion": "ECOBICI - FACULTAD DE MEDICINA (33)", "eje": "Escala Humana", "Area temática": "", "anio": "2017", "Barrio": "RECOLETA", "Comuna": "2", "segundo": "100", "DESCRIPCION": "", "Prioridad": "" }, "geometry": { "type": "Point", "coordinates": [ -58.39871709, -34.59712661 ] } },
{ "type": "Feature", "properties": { "zona": "148", "direccion": "CERRITO Y MARCELO T. DE ALVEAR", "latitude": -34.59699018, "longitude": -58.38289538, "compromiso": "200 estaciones de Eco Bici(2017)", "accion": "ECOBICI - PLAZA LIBERTAD (38)", "eje": "Escala Humana", "Area temática": "", "anio": "2017", "Barrio": "RETIRO", "Comuna": "1", "segundo": "100", "DESCRIPCION": "", "Prioridad": "" }, "geometry": { "type": "Point", "coordinates": [ -58.38289538, -34.59699018 ] } },
{ "type": "Feature", "properties": { "zona": "149", "direccion": "LERMA 185 Y JULIAN ALVAREZ", "latitude": -34.59669374, "longitude": -58.42959068, "compromiso": "200 estaciones de Eco Bici(2017)", "accion": "ECOBICI - LERMA (109)", "eje": "Escala Humana", "Area temática": "", "anio": "2017", "Barrio": "VILLA CRESPO", "Comuna": "15", "segundo": "100", "DESCRIPCION": "", "Prioridad": "" }, "geometry": { "type": "Point", "coordinates": [ -58.42959068, -34.59669374 ] } },
{ "type": "Feature", "properties": { "zona": "150", "direccion": "MARCELO T DE ALVEAR Y SUIPACHA", "latitude": -34.59645576, "longitude": -58.37976485, "compromiso": "200 estaciones de Eco Bici(2017)", "accion": "ECOBICI - MARCELO T. DE ALVEAR (135)", "eje": "Escala Humana", "Area temática": "", "anio": "2017", "Barrio": "RETIRO", "Comuna": "1", "segundo": "100", "DESCRIPCION": "", "Prioridad": "" }, "geometry": { "type": "Point", "coordinates": [ -58.37976485, -34.59645576 ] } },
{ "type": "Feature", "properties": { "zona": "151", "direccion": "MALABIA 780 Y LOYOLA", "latitude": -34.59628054, "longitude": -58.43561549, "compromiso": "200 estaciones de Eco Bici(2017)", "accion": "ECOBICI - MALABIA (99)", "eje": "Escala Humana", "Area temática": "", "anio": "2017", "Barrio": "VILLA CRESPO", "Comuna": "15", "segundo": "100", "DESCRIPCION": "", "Prioridad": "" }, "geometry": { "type": "Point", "coordinates": [ -58.43561549, -34.59628054 ] } },
{ "type": "Feature", "properties": { "zona": "152", "direccion": "SAN MARTIN 1031", "latitude": -34.59588144, "longitude": -58.3742823, "compromiso": "200 estaciones de Eco Bici(2017)", "accion": "ECOBICI - RICARDO ROJAS (53)", "eje": "Escala Humana", "Area temática": "", "anio": "2017", "Barrio": "RETIRO", "Comuna": "1", "segundo": "100", "DESCRIPCION": "", "Prioridad": "" }, "geometry": { "type": "Point", "coordinates": [ -58.3742823, -34.59588144 ] } },
{ "type": "Feature", "properties": { "zona": "153", "direccion": "ECUADOR 1200 Y MANSILLA", "latitude": -34.59586235, "longitude": -58.40435606, "compromiso": "200 estaciones de Eco Bici(2017)", "accion": "ECOBICI - ECUADOR (69)", "eje": "Escala Humana", "Area temática": "", "anio": "2017", "Barrio": "RECOLETA", "Comuna": "2", "segundo": "100", "DESCRIPCION": "", "Prioridad": "" }, "geometry": { "type": "Point", "coordinates": [ -58.40435606, -34.59586235 ] } },
{ "type": "Feature", "properties": { "zona": "154", "direccion": "PLAZA SAN MARTIN", "latitude": -34.59540479, "longitude": -58.37754893, "compromiso": "200 estaciones de Eco Bici(2017)", "accion": "ECOBICI - PLAZA SAN MARTIN (19)", "eje": "Escala Humana", "Area temática": "", "anio": "2017", "Barrio": "RETIRO", "Comuna": "1", "segundo": "100", "DESCRIPCION": "", "Prioridad": "" }, "geometry": { "type": "Point", "coordinates": [ -58.37754893, -34.59540479 ] } },
{ "type": "Feature", "properties": { "zona": "155", "direccion": "CARLOS M. DELLA PAOLERA 297 ENTRE LEANDRO N ALEM Y EDUARDO MADERO", "latitude": -34.5947531, "longitude": -58.37253506, "compromiso": "200 estaciones de Eco Bici(2017)", "accion": "ECOBICI - DELLA PAOLERA (114)", "eje": "Escala Humana", "Area temática": "", "anio": "2017", "Barrio": "RETIRO", "Comuna": "1", "segundo": "100", "DESCRIPCION": "", "Prioridad": "" }, "geometry": { "type": "Point", "coordinates": [ -58.37253506, -34.5947531 ] } },
{ "type": "Feature", "properties": { "zona": "156", "direccion": "DE LA CARCOVA 3508", "latitude": -34.59462914, "longitude": -58.41385893, "compromiso": "200 estaciones de Eco Bici(2017)", "accion": "ECOBICI - BILLINGHURST (66)", "eje": "Escala Humana", "Area temática": "", "anio": "2017", "Barrio": "RECOLETA", "Comuna": "2", "segundo": "100", "DESCRIPCION": "", "Prioridad": "" }, "geometry": { "type": "Point", "coordinates": [ -58.41385893, -34.59462914 ] } },
{ "type": "Feature", "properties": { "zona": "157", "direccion": "AGUERO Y MANSILLA", "latitude": -34.59461611, "longitude": -58.409034, "compromiso": "200 estaciones de Eco Bici(2017)", "accion": "ECOBICI - AGÜERO (85)", "eje": "Escala Humana", "Area temática": "", "anio": "2017", "Barrio": "RECOLETA", "Comuna": "2", "segundo": "100", "DESCRIPCION": "", "Prioridad": "" }, "geometry": { "type": "Point", "coordinates": [ -58.409034, -34.59461611 ] } },
{ "type": "Feature", "properties": { "zona": "158", "direccion": "RIOBAMBA Y JUNCAL", "latitude": -34.59414903, "longitude": -58.39443968, "compromiso": "200 estaciones de Eco Bici(2017)", "accion": "ECOBICI - RIOBAMBA (64)", "eje": "Escala Humana", "Area temática": "", "anio": "2017", "Barrio": "RECOLETA", "Comuna": "2", "segundo": "100", "DESCRIPCION": "", "Prioridad": "" }, "geometry": { "type": "Point", "coordinates": [ -58.39443968, -34.59414903 ] } },
{ "type": "Feature", "properties": { "zona": "159", "direccion": "PLAZA VICENTE LOPEZ", "latitude": -34.59317728, "longitude": -58.38894887, "compromiso": "200 estaciones de Eco Bici(2017)", "accion": "ECOBICI - PLAZA VICENTE LOPEZ (12)", "eje": "Escala Humana", "Area temática": "", "anio": "2017", "Barrio": "RECOLETA", "Comuna": "2", "segundo": "100", "DESCRIPCION": "", "Prioridad": "" }, "geometry": { "type": "Point", "coordinates": [ -58.38894887, -34.59317728 ] } },
{ "type": "Feature", "properties": { "zona": "160", "direccion": "VILLARROEL Y HUMBOLDT", "latitude": -34.59283921, "longitude": -58.44509866, "compromiso": "200 estaciones de Eco Bici(2017)", "accion": "ECOBICI - VILLARROEL (185)", "eje": "Escala Humana", "Area temática": "", "anio": "2017", "Barrio": "VILLA CRESPO", "Comuna": "15", "segundo": "100", "DESCRIPCION": "", "Prioridad": "" }, "geometry": { "type": "Point", "coordinates": [ -58.44509866, -34.59283921 ] } },
{ "type": "Feature", "properties": { "zona": "161", "direccion": "CASTILLO 815 ENTRE THAMES Y SERRANO", "latitude": -34.59270672, "longitude": -58.43677115, "compromiso": "200 estaciones de Eco Bici(2017)", "accion": "ECOBICI - CASTILLO (100)", "eje": "Escala Humana", "Area temática": "", "anio": "2017", "Barrio": "VILLA CRESPO", "Comuna": "15", "segundo": "100", "DESCRIPCION": "", "Prioridad": "" }, "geometry": { "type": "Point", "coordinates": [ -58.43677115, -34.59270672 ] } },
{ "type": "Feature", "properties": { "zona": "162", "direccion": "BILLINGHURST 1533 Y MANSILLA", "latitude": -34.59269661, "longitude": -58.41191367, "compromiso": "200 estaciones de Eco Bici(2017)", "accion": "ECOBICI - BILLINGHURST Y MANSILLA (181)", "eje": "Escala Humana", "Area temática": "", "anio": "2017", "Barrio": "RECOLETA", "Comuna": "2", "segundo": "100", "DESCRIPCION": "", "Prioridad": "" }, "geometry": { "type": "Point", "coordinates": [ -58.41191367, -34.59269661 ] } },
{ "type": "Feature", "properties": { "zona": "163", "direccion": "ARAOZ 1413 ENTRE GORRITI Y HONDURAS", "latitude": -34.59267251, "longitude": -58.42581644, "compromiso": "200 estaciones de Eco Bici(2017)", "accion": "ECOBICI - ARAOZ (70)", "eje": "Escala Humana", "Area temática": "", "anio": "2017", "Barrio": "PALERMO", "Comuna": "14", "segundo": "100", "DESCRIPCION": "", "Prioridad": "" }, "geometry": { "type": "Point", "coordinates": [ -58.42581644, -34.59267251 ] } },
{ "type": "Feature", "properties": { "zona": "164", "direccion": "AV. DR.JOSE RAMOS MEJIA Y DEL LIBERTADOR AV", "latitude": -34.59258881, "longitude": -58.37482179, "compromiso": "200 estaciones de Eco Bici(2017)", "accion": "ECOBICI - RETIRO (2)", "eje": "Escala Humana", "Area temática": "", "anio": "2017", "Barrio": "RETIRO", "Comuna": "1", "segundo": "100", "DESCRIPCION": "", "Prioridad": "" }, "geometry": { "type": "Point", "coordinates": [ -58.37482179, -34.59258881 ] } },
{ "type": "Feature", "properties": { "zona": "165", "direccion": "PLAZA FUERZA AEREA: AV. DR. J. RAMOS MEJIA Y AV DEL LIBERTADOR", "latitude": -34.59194086, "longitude": -58.3742851, "compromiso": "200 estaciones de Eco Bici(2017)", "accion": "ECOBICI - RETIRO II (130)", "eje": "Escala Humana", "Area temática": "", "anio": "2017", "Barrio": "RETIRO", "Comuna": "1", "segundo": "100", "DESCRIPCION": "", "Prioridad": "" }, "geometry": { "type": "Point", "coordinates": [ -58.3742851, -34.59194086 ] } },
{ "type": "Feature", "properties": { "zona": "166", "direccion": "PLAZA FUERZA AEREA: AV. DR. J. RAMOS MEJIA Y AV DEL LIBERTADOR", "latitude": -34.59184649, "longitude": -58.37421003, "compromiso": "200 estaciones de Eco Bici(2017)", "accion": "ECOBICI - RETIRO III (131)", "eje": "Escala Humana", "Area temática": "", "anio": "2017", "Barrio": "RETIRO", "Comuna": "1", "segundo": "100", "DESCRIPCION": "", "Prioridad": "" }, "geometry": { "type": "Point", "coordinates": [ -58.37421003, -34.59184649 ] } },
{ "type": "Feature", "properties": { "zona": "167", "direccion": "GUZMAN Y LEIVA", "latitude": -34.59181912, "longitude": -58.44944206, "compromiso": "200 estaciones de Eco Bici(2017)", "accion": "ECOBICI - GUZMAN (94)", "eje": "Escala Humana", "Area temática": "", "anio": "2017", "Barrio": "CHACARITA", "Comuna": "15", "segundo": "100", "DESCRIPCION": "", "Prioridad": "" }, "geometry": { "type": "Point", "coordinates": [ -58.44944206, -34.59181912 ] } },
{ "type": "Feature", "properties": { "zona": "168", "direccion": "COSTA RICA 4090 Y ACUÑA DE FIGUEROA", "latitude": -34.59162446, "longitude": -58.42040744, "compromiso": "200 estaciones de Eco Bici(2017)", "accion": "ECOBICI - COSTA RICA (122)", "eje": "Escala Humana", "Area temática": "", "anio": "2017", "Barrio": "PALERMO", "Comuna": "14", "segundo": "100", "DESCRIPCION": "", "Prioridad": "" }, "geometry": { "type": "Point", "coordinates": [ -58.42040744, -34.59162446 ] } },
{ "type": "Feature", "properties": { "zona": "169", "direccion": "ARROYO Y SUIPACHA", "latitude": -34.59141569, "longitude": -58.38033824, "compromiso": "200 estaciones de Eco Bici(2017)", "accion": "ECOBICI - ARROYO (78)", "eje": "Escala Humana", "Area temática": "", "anio": "2017", "Barrio": "RETIRO", "Comuna": "1", "segundo": "100", "DESCRIPCION": "", "Prioridad": "" }, "geometry": { "type": "Point", "coordinates": [ -58.38033824, -34.59141569 ] } },
{ "type": "Feature", "properties": { "zona": "170", "direccion": "AZCUENAGA Y PEÑA", "latitude": -34.59039361, "longitude": -58.39737836, "compromiso": "200 estaciones de Eco Bici(2017)", "accion": "ECOBICI - PEÑA (30)", "eje": "Escala Humana", "Area temática": "", "anio": "2017", "Barrio": "RECOLETA", "Comuna": "2", "segundo": "100", "DESCRIPCION": "", "Prioridad": "" }, "geometry": { "type": "Point", "coordinates": [ -58.39737836, -34.59039361 ] } },
{ "type": "Feature", "properties": { "zona": "171", "direccion": "GÑEMES 3328 Y CORONEL DIAZ", "latitude": -34.59022448, "longitude": -58.41149532, "compromiso": "200 estaciones de Eco Bici(2017)", "accion": "ECOBICI - CORONEL DIAZ (59)", "eje": "Escala Humana", "Area temática": "", "anio": "2017", "Barrio": "PALERMO", "Comuna": "14", "segundo": "100", "DESCRIPCION": "", "Prioridad": "" }, "geometry": { "type": "Point", "coordinates": [ -58.41149532, -34.59022448 ] } },
{ "type": "Feature", "properties": { "zona": "172", "direccion": "SALGUERO JERONIMO Y MANSILLA", "latitude": -34.58952073, "longitude": -58.41606502, "compromiso": "200 estaciones de Eco Bici(2017)", "accion": "ECOBICI - PLAZA GUEMES (25)", "eje": "Escala Humana", "Area temática": "", "anio": "2017", "Barrio": "PALERMO", "Comuna": "14", "segundo": "100", "DESCRIPCION": "", "Prioridad": "" }, "geometry": { "type": "Point", "coordinates": [ -58.41606502, -34.58952073 ] } },
{ "type": "Feature", "properties": { "zona": "173", "direccion": "COSTA RICA Y MALABIA", "latitude": -34.58937118, "longitude": -58.42507243, "compromiso": "200 estaciones de Eco Bici(2017)", "accion": "ECOBICI - PLAZA PALERMO VIEJO (56)", "eje": "Escala Humana", "Area temática": "", "anio": "2017", "Barrio": "PALERMO", "Comuna": "14", "segundo": "100", "DESCRIPCION": "", "Prioridad": "" }, "geometry": { "type": "Point", "coordinates": [ -58.42507243, -34.58937118 ] } },
{ "type": "Feature", "properties": { "zona": "174", "direccion": "VICENTE LOPEZ 2050 ENTRE JUNIN Y URIBURU", "latitude": -34.58914974, "longitude": -58.39331745, "compromiso": "200 estaciones de Eco Bici(2017)", "accion": "ECOBICI - CEMENTERIO DE LA RECOLETA (166)", "eje": "Escala Humana", "Area temática": "", "anio": "2017", "Barrio": "RECOLETA", "Comuna": "2", "segundo": "100", "DESCRIPCION": "", "Prioridad": "" }, "geometry": { "type": "Point", "coordinates": [ -58.39331745, -34.58914974 ] } },
{ "type": "Feature", "properties": { "zona": "175", "direccion": "FITZ ROY 1092 Y LOYOLA", "latitude": -34.58904915, "longitude": -58.4424227, "compromiso": "200 estaciones de Eco Bici(2017)", "accion": "ECOBICI - FITZ ROY (101)", "eje": "Escala Humana", "Area temática": "", "anio": "2017", "Barrio": "CHACARITA", "Comuna": "15", "segundo": "100", "DESCRIPCION": "", "Prioridad": "" }, "geometry": { "type": "Point", "coordinates": [ -58.4424227, -34.58904915 ] } },
{ "type": "Feature", "properties": { "zona": "176", "direccion": "PLAZA EMILIO MITRE - LARREA Y PACHECO DE MELO", "latitude": -34.58833959, "longitude": -58.39766869, "compromiso": "200 estaciones de Eco Bici(2017)", "accion": "ECOBICI - EMILIO MITRE (119)", "eje": "Escala Humana", "Area temática": "", "anio": "2017", "Barrio": "RECOLETA", "Comuna": "2", "segundo": "100", "DESCRIPCION": "", "Prioridad": "" }, "geometry": { "type": "Point", "coordinates": [ -58.39766869, -34.58833959 ] } },
{ "type": "Feature", "properties": { "zona": "177", "direccion": "MANUEL QUINTANA 600", "latitude": -34.58781205, "longitude": -58.39078628, "compromiso": "200 estaciones de Eco Bici(2017)", "accion": "ECOBICI - QUINTANA (115)", "eje": "Escala Humana", "Area temática": "", "anio": "2017", "Barrio": "RECOLETA", "Comuna": "2", "segundo": "100", "DESCRIPCION": "", "Prioridad": "" }, "geometry": { "type": "Point", "coordinates": [ -58.39078628, -34.58781205 ] } },
{ "type": "Feature", "properties": { "zona": "178", "direccion": "AV CORRIENTES 6800 Y FEDERICO LACROZE", "latitude": -34.58754836, "longitude": -58.45506219, "compromiso": "200 estaciones de Eco Bici(2017)", "accion": "ECOBICI - FEDERICO LACROZE (104)", "eje": "Escala Humana", "Area temática": "", "anio": "2017", "Barrio": "CHACARITA", "Comuna": "15", "segundo": "100", "DESCRIPCION": "", "Prioridad": "" }, "geometry": { "type": "Point", "coordinates": [ -58.45506219, -34.58754836 ] } },
{ "type": "Feature", "properties": { "zona": "179", "direccion": "GÑEMES 3822 ENTRE JULIAN ALVAREZ Y ARAOZ", "latitude": -34.58721574, "longitude": -58.41593968, "compromiso": "200 estaciones de Eco Bici(2017)", "accion": "ECOBICI - JULIAN ALVAREZ (65)", "eje": "Escala Humana", "Area temática": "", "anio": "2017", "Barrio": "PALERMO", "Comuna": "14", "segundo": "100", "DESCRIPCION": "", "Prioridad": "" }, "geometry": { "type": "Point", "coordinates": [ -58.41593968, -34.58721574 ] } },
{ "type": "Feature", "properties": { "zona": "180", "direccion": "JUAN MARIA GUTIERREZ ENTRE AGUERO Y LAPRIDA", "latitude": -34.58711721, "longitude": -58.39936857, "compromiso": "200 estaciones de Eco Bici(2017)", "accion": "ECOBICI - GUTIERREZ (90)", "eje": "Escala Humana", "Area temática": "", "anio": "2017", "Barrio": "RECOLETA", "Comuna": "2", "segundo": "100", "DESCRIPCION": "", "Prioridad": "" }, "geometry": { "type": "Point", "coordinates": [ -58.39936857, -34.58711721 ] } },
{ "type": "Feature", "properties": { "zona": "181", "direccion": "GUATEMALA 4799 ENTRE J.L. BORGES Y GURRUCHAGA", "latitude": -34.58566944, "longitude": -58.42520466, "compromiso": "200 estaciones de Eco Bici(2017)", "accion": "ECOBICI - GUATEMALA (113)", "eje": "Escala Humana", "Area temática": "", "anio": "2017", "Barrio": "PALERMO", "Comuna": "14", "segundo": "100", "DESCRIPCION": "", "Prioridad": "" }, "geometry": { "type": "Point", "coordinates": [ -58.42520466, -34.58566944 ] } },
{ "type": "Feature", "properties": { "zona": "182", "direccion": "ARMENIA 2393 Y CHARCAS", "latitude": -34.58542422, "longitude": -58.42104415, "compromiso": "200 estaciones de Eco Bici(2017)", "accion": "ECOBICI - ARMENIA (123)", "eje": "Escala Humana", "Area temática": "", "anio": "2017", "Barrio": "PALERMO", "Comuna": "14", "segundo": "100", "DESCRIPCION": "", "Prioridad": "" }, "geometry": { "type": "Point", "coordinates": [ -58.42104415, -34.58542422 ] } },
{ "type": "Feature", "properties": { "zona": "183", "direccion": "PARQUE LAS HERAS", "latitude": -34.58391457, "longitude": -58.40714467, "compromiso": "200 estaciones de Eco Bici(2017)", "accion": "ECOBICI - PARQUE LAS HERAS (9)", "eje": "Escala Humana", "Area temática": "", "anio": "2017", "Barrio": "PALERMO", "Comuna": "14", "segundo": "100", "DESCRIPCION": "", "Prioridad": "" }, "geometry": { "type": "Point", "coordinates": [ -58.40714467, -34.58391457 ] } },
{ "type": "Feature", "properties": { "zona": "184", "direccion": "LUCENA PEREYRA 2516 ENTRE LAS HERAS Y PAGANO", "latitude": -34.58367733, "longitude": -58.40114778, "compromiso": "200 estaciones de Eco Bici(2017)", "accion": "ECOBICI - HOSPITAL RIVADAVIA (50)", "eje": "Escala Humana", "Area temática": "", "anio": "2017", "Barrio": "PALERMO", "Comuna": "14", "segundo": "100", "DESCRIPCION": "", "Prioridad": "" }, "geometry": { "type": "Point", "coordinates": [ -58.40114778, -34.58367733 ] } },
{ "type": "Feature", "properties": { "zona": "185", "direccion": "AV. PRES.FIGUEROA ALCORTA Y  JUAN A.BIBILONI", "latitude": -34.58313308, "longitude": -58.39245207, "compromiso": "200 estaciones de Eco Bici(2017)", "accion": "ECOBICI - FACULTAD DE DERECHO (1)", "eje": "Escala Humana", "Area temática": "", "anio": "2017", "Barrio": "RECOLETA", "Comuna": "2", "segundo": "100", "DESCRIPCION": "", "Prioridad": "" }, "geometry": { "type": "Point", "coordinates": [ -58.39245207, -34.58313308 ] } },
{ "type": "Feature", "properties": { "zona": "186", "direccion": "CABELLO ENTRE CNEL DIAZ Y ORTIZ DE OCAMPO", "latitude": -34.58247238, "longitude": -58.4053127, "compromiso": "200 estaciones de Eco Bici(2017)", "accion": "ECOBICI - CABELLO (89)", "eje": "Escala Humana", "Area temática": "", "anio": "2017", "Barrio": "PALERMO", "Comuna": "14", "segundo": "100", "DESCRIPCION": "", "Prioridad": "" }, "geometry": { "type": "Point", "coordinates": [ -58.4053127, -34.58247238 ] } },
{ "type": "Feature", "properties": { "zona": "187", "direccion": "UGARTECHE ENTRE CABELLO Y LAS HERAS", "latitude": -34.58108161, "longitude": -58.41231356, "compromiso": "200 estaciones de Eco Bici(2017)", "accion": "ECOBICI - UGARTECHE (124)", "eje": "Escala Humana", "Area temática": "", "anio": "2017", "Barrio": "PALERMO", "Comuna": "14", "segundo": "100", "DESCRIPCION": "", "Prioridad": "" }, "geometry": { "type": "Point", "coordinates": [ -58.41231356, -34.58108161 ] } },
{ "type": "Feature", "properties": { "zona": "188", "direccion": "RAVIGNANI 1883 Y COSTA RICA", "latitude": -34.58046947, "longitude": -58.43783661, "compromiso": "200 estaciones de Eco Bici(2017)", "accion": "ECOBICI - RAVIGNANI (145)", "eje": "Escala Humana", "Area temática": "", "anio": "2017", "Barrio": "PALERMO", "Comuna": "14", "segundo": "100", "DESCRIPCION": "", "Prioridad": "" }, "geometry": { "type": "Point", "coordinates": [ -58.43783661, -34.58046947 ] } },
{ "type": "Feature", "properties": { "zona": "189", "direccion": "AV. SANTA FE Y AV. SARMIENTO", "latitude": -34.58012734, "longitude": -58.42099704, "compromiso": "200 estaciones de Eco Bici(2017)", "accion": "ECOBICI - PLAZA ITALIA (5)", "eje": "Escala Humana", "Area temática": "", "anio": "2017", "Barrio": "PALERMO", "Comuna": "14", "segundo": "100", "DESCRIPCION": "", "Prioridad": "" }, "geometry": { "type": "Point", "coordinates": [ -58.42099704, -34.58012734 ] } },
{ "type": "Feature", "properties": { "zona": "190", "direccion": "ZAPIOLA Y DORREGO", "latitude": -34.58003612, "longitude": -58.44178851, "compromiso": "200 estaciones de Eco Bici(2017)", "accion": "ECOBICI - DISTRITO AUDIOVISUAL (20)", "eje": "Escala Humana", "Area temática": "", "anio": "2017", "Barrio": "COLEGIALES", "Comuna": "13", "segundo": "100", "DESCRIPCION": "", "Prioridad": "" }, "geometry": { "type": "Point", "coordinates": [ -58.44178851, -34.58003612 ] } },
{ "type": "Feature", "properties": { "zona": "191", "direccion": "RAVIGNANI 2171 Y GUATEMALA", "latitude": -34.57819095, "longitude": -58.43523361, "compromiso": "200 estaciones de Eco Bici(2017)", "accion": "ECOBICI - RAVIGNANI Y GUATEMALA (182)", "eje": "Escala Humana", "Area temática": "", "anio": "2017", "Barrio": "PALERMO", "Comuna": "14", "segundo": "100", "DESCRIPCION": "", "Prioridad": "" }, "geometry": { "type": "Point", "coordinates": [ -58.43523361, -34.57819095 ] } },
{ "type": "Feature", "properties": { "zona": "192", "direccion": "PACIFICO", "latitude": -34.5777875, "longitude": -58.42631986, "compromiso": "200 estaciones de Eco Bici(2017)", "accion": "ECOBICI - PACIFICO (14)", "eje": "Escala Humana", "Area temática": "", "anio": "2017", "Barrio": "PALERMO", "Comuna": "14", "segundo": "100", "DESCRIPCION": "", "Prioridad": "" }, "geometry": { "type": "Point", "coordinates": [ -58.42631986, -34.5777875 ] } },
{ "type": "Feature", "properties": { "zona": "193", "direccion": "AV FIGUEROA ALCORTA Y SAN MARTIN DE TOURS", "latitude": -34.57741462, "longitude": -58.40353315, "compromiso": "200 estaciones de Eco Bici(2017)", "accion": "ECOBICI - MALBA (103)", "eje": "Escala Humana", "Area temática": "", "anio": "2017", "Barrio": "PALERMO", "Comuna": "14", "segundo": "100", "DESCRIPCION": "", "Prioridad": "" }, "geometry": { "type": "Point", "coordinates": [ -58.40353315, -34.57741462 ] } },
{ "type": "Feature", "properties": { "zona": "194", "direccion": "AV DEL LIBERTADOR Y AV SARMIENTO", "latitude": -34.57548532, "longitude": -58.41459488, "compromiso": "200 estaciones de Eco Bici(2017)", "accion": "ECOBICI - ZOOLOGICO (44)", "eje": "Escala Humana", "Area temática": "", "anio": "2017", "Barrio": "PALERMO", "Comuna": "14", "segundo": "100", "DESCRIPCION": "", "Prioridad": "" }, "geometry": { "type": "Point", "coordinates": [ -58.41459488, -34.57548532 ] } },
{ "type": "Feature", "properties": { "zona": "195", "direccion": "GODOY CRUZ 3291 ENTRE AV DEL LIBERTADOR Y SEGUI", "latitude": -34.57296237, "longitude": -58.42021025, "compromiso": "200 estaciones de Eco Bici(2017)", "accion": "ECOBICI - GODOY CRUZ Y LIBERTADOR (160)", "eje": "Escala Humana", "Area temática": "", "anio": "2017", "Barrio": "PALERMO", "Comuna": "14", "segundo": "100", "DESCRIPCION": "", "Prioridad": "" }, "geometry": { "type": "Point", "coordinates": [ -58.42021025, -34.57296237 ] } },
{ "type": "Feature", "properties": { "zona": "196", "direccion": "GRAL URQUIZA Y RONDEAU", "latitude": -34.63651941, "longitude": -58.40759198, "compromiso": "200 estaciones de Eco Bici(2017)", "accion": "ECOBICI - URQUIZA (41)", "eje": "Escala Humana", "Area temática": "", "anio": "2017", "Barrio": "PARQUE PATRICIOS", "Comuna": "4", "segundo": "100", "DESCRIPCION": "", "Prioridad": "" }, "geometry": { "type": "Point", "coordinates": [ -58.40759198, -34.63651941 ] } },
{ "type": "Feature", "properties": { "zona": "197", "direccion": "LAS CASAS 3587 ENTRE AV. BOEDO Y ALZAGA", "latitude": -34.63514804, "longitude": -58.41577504, "compromiso": "200 estaciones de Eco Bici(2017)", "accion": "ECOBICI - LAS CASAS (140)", "eje": "Escala Humana", "Area temática": "", "anio": "2017", "Barrio": "BOEDO", "Comuna": "5", "segundo": "100", "DESCRIPCION": "", "Prioridad": "" }, "geometry": { "type": "Point", "coordinates": [ -58.41577504, -34.63514804 ] } },
{ "type": "Feature", "properties": { "zona": "198", "direccion": "HOSPITAL GARRAHAN: AV BRASIL Y PICHINCHA", "latitude": -34.63043769, "longitude": -58.39594436, "compromiso": "200 estaciones de Eco Bici(2017)", "accion": "ECOBICI - HOSPITAL GARRAHAN (107)", "eje": "Escala Humana", "Area temática": "", "anio": "2017", "Barrio": "PARQUE PATRICIOS", "Comuna": "4", "segundo": "100", "DESCRIPCION": "", "Prioridad": "" }, "geometry": { "type": "Point", "coordinates": [ -58.39594436, -34.63043769 ] } },
{ "type": "Feature", "properties": { "zona": "199", "direccion": "PERU 490 Y VENEZUELA", "latitude": -34.61365039, "longitude": -58.3745525, "compromiso": "200 estaciones de Eco Bici(2017)", "accion": "ECOBICI - VENEZUELA (72)", "eje": "Escala Humana", "Area temática": "", "anio": "2017", "Barrio": "MONSERRAT", "Comuna": "1", "segundo": "100", "DESCRIPCION": "", "Prioridad": "" }, "geometry": { "type": "Point", "coordinates": [ -58.3745525, -34.61365039 ] } },
{ "type": "Feature", "properties": { "zona": "200", "direccion": "RIVADAVIA Y CARLOS PELLEGRINI", "latitude": -34.60823179, "longitude": -58.38091227, "compromiso": "200 estaciones de Eco Bici(2017)", "accion": "ECOBICI - RIVADAVIA Y 9 DE JULIO (191)", "eje": "Escala Humana", "Area temática": "", "anio": "2017", "Barrio": "SAN NICOLAS", "Comuna": "1", "segundo": "100", "DESCRIPCION": "", "Prioridad": "" }, "geometry": { "type": "Point", "coordinates": [ -58.38091227, -34.60823179 ] } },
{ "type": "Feature", "properties": { "zona": "201", "direccion": "AYACUCHO ENTRE PERON JUAN Y BARTOLOME MITRE", "latitude": -34.60757265, "longitude": -58.39492731, "compromiso": "200 estaciones de Eco Bici(2017)", "accion": "ECOBICI - AYACUCHO (76)", "eje": "Escala Humana", "Area temática": "", "anio": "2017", "Barrio": "BALVANERA", "Comuna": "3", "segundo": "100", "DESCRIPCION": "", "Prioridad": "" }, "geometry": { "type": "Point", "coordinates": [ -58.39492731, -34.60757265 ] } },
{ "type": "Feature", "properties": { "zona": "202", "direccion": "RAWSON ENTRE POTOSI Y DIAZ VELEZ", "latitude": -34.6074295, "longitude": -58.42626664, "compromiso": "200 estaciones de Eco Bici(2017)", "accion": "ECOBICI - HOSPITAL ITALIANO (82)", "eje": "Escala Humana", "Area temática": "", "anio": "2017", "Barrio": "ALMAGRO", "Comuna": "5", "segundo": "100", "DESCRIPCION": "", "Prioridad": "" }, "geometry": { "type": "Point", "coordinates": [ -58.42626664, -34.6074295 ] } },
{ "type": "Feature", "properties": { "zona": "203", "direccion": "AV. PATRICIAS ARGENTINAS 401, ENTRE JUANA DE IBARBOUROU Y AV. MACHADO", "latitude": -34.60457178, "longitude": -58.4342428, "compromiso": "200 estaciones de Eco Bici(2017)", "accion": "ECOBICI - INSTITUTO LELOIR (74)", "eje": "Escala Humana", "Area temática": "", "anio": "2017", "Barrio": "CABALLITO", "Comuna": "6", "segundo": "100", "DESCRIPCION": "", "Prioridad": "" }, "geometry": { "type": "Point", "coordinates": [ -58.4342428, -34.60457178 ] } },
{ "type": "Feature", "properties": { "zona": "204", "direccion": "GUARDIA VIEJA 3302", "latitude": -34.60289114, "longitude": -58.41158489, "compromiso": "200 estaciones de Eco Bici(2017)", "accion": "ECOBICI - CARLOS GARDEL (96)", "eje": "Escala Humana", "Area temática": "", "anio": "2017", "Barrio": "BALVANERA", "Comuna": "3", "segundo": "100", "DESCRIPCION": "", "Prioridad": "" }, "geometry": { "type": "Point", "coordinates": [ -58.41158489, -34.60289114 ] } },
{ "type": "Feature", "properties": { "zona": "205", "direccion": "MAIPU 820", "latitude": -34.59851552, "longitude": -58.37690072, "compromiso": "200 estaciones de Eco Bici(2017)", "accion": "ECOBICI - CORDOBA (62)", "eje": "Escala Humana", "Area temática": "", "anio": "2017", "Barrio": "RETIRO", "Comuna": "1", "segundo": "100", "DESCRIPCION": "", "Prioridad": "" }, "geometry": { "type": "Point", "coordinates": [ -58.37690072, -34.59851552 ] } },
{ "type": "Feature", "properties": { "zona": "206", "direccion": "ING. BUTTY Y LEANDRO N. ALEM", "latitude": -34.59632739, "longitude": -58.37185787, "compromiso": "200 estaciones de Eco Bici(2017)", "accion": "ECOBICI - INGENIERO BUTTY (35)", "eje": "Escala Humana", "Area temática": "", "anio": "2017", "Barrio": "RETIRO", "Comuna": "1", "segundo": "100", "DESCRIPCION": "", "Prioridad": "" }, "geometry": { "type": "Point", "coordinates": [ -58.37185787, -34.59632739 ] } },
{ "type": "Feature", "properties": { "zona": "207", "direccion": "ARENALES Y CERRITO", "latitude": -34.59409984, "longitude": -58.38257046, "compromiso": "200 estaciones de Eco Bici(2017)", "accion": "ECOBICI - ARENALES (22)", "eje": "Escala Humana", "Area temática": "", "anio": "2017", "Barrio": "RETIRO", "Comuna": "1", "segundo": "100", "DESCRIPCION": "", "Prioridad": "" }, "geometry": { "type": "Point", "coordinates": [ -58.38257046, -34.59409984 ] } },